Unnamed: 0,User ID,Venue ID,Venue category ID,Venue category name,Latitude,Longitude,Timezone,UTC time
4,87,Taïm Mobile Falafel & Smoothie Truck,4bf58dd8d48988d1cb941735,Food Truck,40.74010382743943,-73.98965835571289,-240,Tue Apr 03 18:03:00 +0000 2012
5,484,Compare Foods Supermarket,4bf58dd8d48988d118951735,Food & Drink Shop,40.69042711809854,-73.95468677509598,-240,Tue Apr 03 18:04:00 +0000 2012
10,87,The Guilty Goose,4bf58dd8d48988d155941735,Gastropub,40.74348254,-73.994009,-240,Tue Apr 03 18:07:15 +0000 2012
16,445,C-Town Supermarket,4bf58dd8d48988d118951735,Food & Drink Shop,40.82678953781387,-73.94950923509141,-240,Tue Apr 03 18:10:39 +0000 2012
17,135,Dishes,4bf58dd8d48988d1c4941735,Restaurant,40.75527487548953,-73.97880613803864,-240,Tue Apr 03 18:11:04 +0000 2012
19,704,The Culinary Conference Center,4bf58dd8d48988d14e941735,American Restaurant,40.73067679262482,-74.06567180055883,-240,Tue Apr 03 18:11:35 +0000 2012
28,689,Eataly Flatiron,4bf58dd8d48988d118951735,Food & Drink Shop,40.74186151409088,-73.98943362953369,-240,Tue Apr 03 18:15:05 +0000 2012
30,32,Maui Tacos,4bf58dd8d48988d1c1941735,Mexican Restaurant,40.74773816943053,-73.98519814526952,-240,Tue Apr 03 18:15:33 +0000 2012
31,230,Webster Hall,4bf58dd8d48988d1e5931735,Music Venue,40.73169799836348,-73.98922693741638,-240,Tue Apr 03 18:16:09 +0000 2012
34,962,Madison Square Park,4bf58dd8d48988d163941735,Park,40.74218830848454,-73.98792418909154,-240,Tue Apr 03 18:17:17 +0000 2012
38,962,Shake Shack,4bf58dd8d48988d16c941735,Burger Joint,40.74140750304299,-73.98843795061111,-240,Tue Apr 03 18:19:21 +0000 2012
43,398,Gigi's Pizzeria & Restaurant,4bf58dd8d48988d1ca941735,Pizza Place,40.77615805031661,-73.82361593360073,-240,Tue Apr 03 18:23:40 +0000 2012
45,424,Ted & Honey,4bf58dd8d48988d1c5941735,Sandwich Place,40.68892998843297,-73.99566650390625,-240,Tue Apr 03 18:24:38 +0000 2012
55,15,Soup Stop,4bf58dd8d48988d1dd931735,Soup Place,40.785679,-73.972834,-240,Tue Apr 03 18:33:49 +0000 2012
59,280,Natural Frontier Market,4bf58dd8d48988d118951735,Food & Drink Shop,40.73971082815715,-73.9825179760415,-240,Tue Apr 03 18:35:31 +0000 2012
70,80,Frank's Luncheonette,4bf58dd8d48988d147941735,Diner,40.67919,-73.995548,-240,Tue Apr 03 18:43:53 +0000 2012
76,639,Willy's Hairstyling,4bf58dd8d48988d110951735,Salon / Barbershop,40.77536339,-73.955705,-240,Tue Apr 03 18:48:57 +0000 2012
78,713,Chipotle Mexican Grill,4bf58dd8d48988d1c1941735,Mexican Restaurant,40.745245,-73.982692,-240,Tue Apr 03 18:51:03 +0000 2012
90,628,Costco,4bf58dd8d48988d118951735,Food & Drink Shop,40.83162208784265,-74.13679361343384,-240,Tue Apr 03 19:01:40 +0000 2012
91,225,Subway,4bf58dd8d48988d1c5941735,Sandwich Place,40.726045,-73.79091154388917,-240,Tue Apr 03 19:03:16 +0000 2012
92,504,Outtakes,4bf58dd8d48988d14e941735,American Restaurant,40.715280885129175,-74.03639537384788,-240,Tue Apr 03 19:03:38 +0000 2012
93,226,Junior's,4bf58dd8d48988d14e941735,American Restaurant,40.75821277375464,-73.98682594299316,-240,Tue Apr 03 19:03:47 +0000 2012
101,706,Key Food Stores Co-Op,4bf58dd8d48988d118951735,Food & Drink Shop,40.67755881343268,-73.74452479795166,-240,Tue Apr 03 19:11:04 +0000 2012
105,1005,Cafe Habana,4bf58dd8d48988d154941735,Cuban Restaurant,40.72284169882771,-73.9941164689654,-240,Tue Apr 03 19:14:31 +0000 2012
106,706,Western Beef,4bf58dd8d48988d118951735,Food & Drink Shop,40.68006413170521,-73.76161876452181,-240,Tue Apr 03 19:14:34 +0000 2012
107,706,Smoke BBQ Pit,4bf58dd8d48988d1df931735,BBQ Joint,40.68083,-73.76331,-240,Tue Apr 03 19:15:04 +0000 2012
110,406,San Loco,4bf58dd8d48988d1c1941735,Mexican Restaurant,40.72828342000001,-73.987885,-240,Tue Apr 03 19:17:24 +0000 2012
111,868,Cosi,4bf58dd8d48988d1c5941735,Sandwich Place,40.738553,-73.987393,-240,Tue Apr 03 19:17:34 +0000 2012
113,751,Fresh Tortillas Express,4bf58dd8d48988d1c1941735,Mexican Restaurant,40.72862394,-74.005252,-240,Tue Apr 03 19:18:58 +0000 2012
126,950,Dolce Novita,4bf58dd8d48988d110941735,Italian Restaurant,40.840306,-74.04756321666666,-240,Tue Apr 03 19:26:31 +0000 2012
127,1055,Nonna's Table,4bf58dd8d48988d1f5941735,Food & Drink Shop,40.7828036434665,-73.95175935821182,-240,Tue Apr 03 19:27:54 +0000 2012
128,615,Washington Square Park,4bf58dd8d48988d163941735,Park,40.73083612189599,-73.99764060974121,-240,Tue Apr 03 19:29:18 +0000 2012
130,615,Washington Square Fountain,4bf58dd8d48988d162941735,Other Great Outdoors,40.730769,-73.9974505,-240,Tue Apr 03 19:29:44 +0000 2012
131,950,MetLife Stadium,4bf58dd8d48988d189941735,Stadium,40.8134844303353,-74.07433032989502,-240,Tue Apr 03 19:29:47 +0000 2012
134,292,St. Patrick's Cathedral,4bf58dd8d48988d132941735,Church,40.758505337427664,-73.97652626037598,-240,Tue Apr 03 19:33:21 +0000 2012
137,69,Eddy's Barbershop,4bf58dd8d48988d110951735,Salon / Barbershop,40.71285903453827,-73.87741935714287,-240,Tue Apr 03 19:34:56 +0000 2012
139,7,Butterfield Market,4bf58dd8d48988d118951735,Food & Drink Shop,40.774111,-73.959546,-240,Tue Apr 03 19:35:38 +0000 2012
140,592,Union Square Greenmarket,4bf58dd8d48988d1fa941735,Food & Drink Shop,40.73652697126574,-73.9905595779419,-240,Tue Apr 03 19:36:05 +0000 2012
149,272,Boboa Time,4bf58dd8d48988d112941735,Bar,40.725730202803845,-73.79252672195435,-240,Tue Apr 03 19:42:24 +0000 2012
152,976,MTA MaBSTOA Bus - M5 / M9 / M22 / M103 at City Hall,4bf58dd8d48988d162941735,Other Great Outdoors,40.71258960356785,-74.0063202381134,-240,Tue Apr 03 19:43:17 +0000 2012
159,281,Antojos Colombianos Panaderia y Restaurante,4bf58dd8d48988d150941735,Spanish Restaurant,40.747048,-74.15257036685944,-240,Tue Apr 03 19:50:48 +0000 2012
162,557,Mooncake Foods,4bf58dd8d48988d142941735,Asian Restaurant,40.7495279,-73.9947032,-240,Tue Apr 03 19:51:07 +0000 2012
177,573,C-Town Supermarkets,4bf58dd8d48988d118951735,Food & Drink Shop,40.83260433886108,-73.86046496281456,-240,Tue Apr 03 20:03:56 +0000 2012
180,346,Yoshino Asian Fusion,4bf58dd8d48988d142941735,Asian Restaurant,40.925826,-73.835898,-240,Tue Apr 03 20:04:18 +0000 2012
188,865,Clark S Diner,4bf58dd8d48988d147941735,Diner,40.69754694616505,-73.9930031358868,-240,Tue Apr 03 20:07:29 +0000 2012
193,65,Moe's Southwest Grill,4bf58dd8d48988d153941735,Burrito Place,40.80494,-73.992149,-240,Tue Apr 03 20:09:55 +0000 2012
200,880,McDonald's,4bf58dd8d48988d16e941735,Fast Food Restaurant,40.78986319381769,-73.94593309268163,-240,Tue Apr 03 20:11:54 +0000 2012
202,267,Pathmark,4bf58dd8d48988d118951735,Food & Drink Shop,40.868125922072615,-73.8257646560669,-240,Tue Apr 03 20:15:46 +0000 2012
203,615,Dumpling Man,4bf58dd8d48988d108941735,Dumpling Restaurant,40.72741096343491,-73.98472180100865,-240,Tue Apr 03 20:16:59 +0000 2012
206,820,Cluck-U Chicken,4bf58dd8d48988d14c941735,Wings Joint,40.7379797262936,-74.0307610228812,-240,Tue Apr 03 20:20:24 +0000 2012
207,445,Daily Juice,4bf58dd8d48988d112941735,Bar,40.731786,-73.983701,-240,Tue Apr 03 20:21:06 +0000 2012
208,516,The New York Beer Company,4bf58dd8d48988d116941735,Bar,40.758846660085474,-73.9895510673523,-240,Tue Apr 03 20:21:12 +0000 2012
209,281,Patterson St Courts,4bf58dd8d48988d163941735,Park,40.74724254,-74.15266696,-240,Tue Apr 03 20:21:35 +0000 2012
211,528,Footprints Cafe,4bf58dd8d48988d144941735,Caribbean Restaurant,40.57562689089684,-73.98329850027537,-240,Tue Apr 03 20:22:14 +0000 2012
215,246,Lenny's Barber Shop,4bf58dd8d48988d110951735,Salon / Barbershop,40.76050818785058,-73.96744635021412,-240,Tue Apr 03 20:25:40 +0000 2012
219,458,Korean War Veterans Plaza,4bf58dd8d48988d163941735,Park,40.695941850543576,-73.99039194274509,-240,Tue Apr 03 20:27:35 +0000 2012
224,498,Marias Pizza,4bf58dd8d48988d1ca941735,Pizza Place,40.626435638129095,-74.01344955620925,-240,Tue Apr 03 20:31:56 +0000 2012
226,557,Greeley Square,4bf58dd8d48988d163941735,Park,40.74866717767752,-73.98837625980377,-240,Tue Apr 03 20:34:20 +0000 2012
229,313,Marche du Sud,4bf58dd8d48988d10c941735,French Restaurant,40.76170986250295,-73.9601396882319,-240,Tue Apr 03 20:37:25 +0000 2012
233,798,Billy's Sports Bar & Lounge Rooftop,4bf58dd8d48988d11d941735,Bar,40.82720714615709,-73.92603062509322,-240,Tue Apr 03 20:39:38 +0000 2012
239,662,Sticky Rice,4bf58dd8d48988d142941735,Asian Restaurant,40.71800153431413,-73.99028290313753,-240,Tue Apr 03 20:45:37 +0000 2012
243,691,Home Liquors,4bf58dd8d48988d186941735,Food & Drink Shop,40.745192,-74.219411,-240,Tue Apr 03 20:46:53 +0000 2012
247,107,7-Eleven,4bf58dd8d48988d1f9941735,Food & Drink Shop,40.76504877198539,-73.8195435104015,-240,Tue Apr 03 20:49:59 +0000 2012
248,615,Union Square Park,4bf58dd8d48988d163941735,Park,40.73528249691621,-73.99040315158283,-240,Tue Apr 03 20:50:42 +0000 2012
254,498,Leif Ericson Park And Square,4bf58dd8d48988d163941735,Park,40.63038932332184,-74.01065501583342,-240,Tue Apr 03 20:53:10 +0000 2012
265,84,A Cafe,4bf58dd8d48988d1bd941735,Salad Place,40.753239916464246,-73.97408696449409,-240,Tue Apr 03 20:57:42 +0000 2012
269,768,Thomas Kinkade Gallery,4bf58dd8d48988d1e2931735,Art Gallery,40.95617,-74.06845,-240,Tue Apr 03 20:58:50 +0000 2012
285,817,Mill Creek Dog Park,4bf58dd8d48988d163941735,Park,40.80588623,-74.04406167,-240,Tue Apr 03 21:11:33 +0000 2012
300,225,Halal Jumpoff,4bf58dd8d48988d1cb941735,Food Truck,40.73829710483551,-73.878961,-240,Tue Apr 03 21:16:01 +0000 2012
305,340,Quantum Leap,4bf58dd8d48988d1d3941735,Vegetarian / Vegan Restaurant,40.729369,-73.998868,-240,Tue Apr 03 21:18:47 +0000 2012
308,1034,Sushi Choshi,4bf58dd8d48988d1d2941735,Sushi Restaurant,40.73702362705514,-73.98658125865622,-240,Tue Apr 03 21:22:18 +0000 2012
314,528,Coffee Cart,4bf58dd8d48988d1cb941735,Food Truck,40.71293258666992,-73.98744201660156,-240,Tue Apr 03 21:23:52 +0000 2012
316,645,Hoboken Vine,4bf58dd8d48988d119951735,Food & Drink Shop,40.7373,-74.03744,-240,Tue Apr 03 21:24:48 +0000 2012
320,758,Butter Cutters Barber Shop,4bf58dd8d48988d110951735,Salon / Barbershop,40.67275509672217,-73.775631,-240,Tue Apr 03 21:28:09 +0000 2012
324,192,Good Burger,4bf58dd8d48988d16c941735,Burger Joint,40.737367546551965,-73.99015090774017,-240,Tue Apr 03 21:29:35 +0000 2012
339,84,The Perfect Pint,4bf58dd8d48988d11b941735,Bar,40.75275186110882,-73.97305386754967,-240,Tue Apr 03 21:35:09 +0000 2012
343,120,Wo Hop,4bf58dd8d48988d145941735,Chinese Restaurant,40.714464086511576,-73.9991158246994,-240,Tue Apr 03 21:36:12 +0000 2012
344,987,Snafu,4bf58dd8d48988d118941735,Bar,40.7545168847519,-73.97339823381394,-240,Tue Apr 03 21:36:14 +0000 2012
347,987,Gyu-Kaku BBQ,4bf58dd8d48988d1df931735,BBQ Joint,40.75561215118185,-73.97092580795288,-240,Tue Apr 03 21:38:14 +0000 2012
351,874,D&D Diner & Coffee Shop,4bf58dd8d48988d1be941735,Latin American Restaurant,40.68980100205988,-73.7210965214738,-240,Tue Apr 03 21:38:48 +0000 2012
363,131,Fulton Park,4bf58dd8d48988d163941735,Park,40.67971862117922,-73.9319908618927,-240,Tue Apr 03 21:43:39 +0000 2012
364,987,Jamba Juice,4bf58dd8d48988d112941735,Bar,40.75803174296939,-73.97142385887315,-240,Tue Apr 03 21:44:29 +0000 2012
369,59,Mateos Park,4bf58dd8d48988d163941735,Park,40.742152600205785,-73.82756765488456,-240,Tue Apr 03 21:47:27 +0000 2012
373,4,Jacob Restaurant,4bf58dd8d48988d14f941735,Southern / Soul Food Restaurant,40.810203,-73.943523,-240,Tue Apr 03 21:49:54 +0000 2012
375,586,The Triple Crown Ale House & Restaurant,4bf58dd8d48988d11b941735,Bar,40.747558,-73.993104,-240,Tue Apr 03 21:50:29 +0000 2012
380,510,Corona Barber Shop Plus,4bf58dd8d48988d110951735,Salon / Barbershop,40.75102830623012,-73.87264966964722,-240,Tue Apr 03 21:52:30 +0000 2012
389,1072,67 Burger,4bf58dd8d48988d16c941735,Burger Joint,40.680478363795984,-73.9749708319223,-240,Tue Apr 03 21:54:56 +0000 2012
396,652,Torna's Pizzeria,4bf58dd8d48988d1ca941735,Pizza Place,40.747842,-74.030874,-240,Tue Apr 03 21:55:55 +0000 2012
397,299,Dos Caminos,4bf58dd8d48988d1c1941735,Mexican Restaurant,40.75557964275588,-73.97086143493652,-240,Tue Apr 03 21:56:19 +0000 2012
399,246,Sin Bin,4bf58dd8d48988d118941735,Bar,40.75918262141176,-73.96217731622924,-240,Tue Apr 03 21:56:56 +0000 2012
401,315,Sandy Styles Barbershop,4bf58dd8d48988d110951735,Salon / Barbershop,40.66676014225354,-73.88194173176646,-240,Tue Apr 03 21:57:17 +0000 2012
405,12,Great Wall Supermarket,4bf58dd8d48988d118951735,Food & Drink Shop,40.764016,-73.82947598,-240,Tue Apr 03 21:58:10 +0000 2012
406,129,Whiskey Tavern,4bf58dd8d48988d116941735,Bar,40.71655807771725,-74.00008678436278,-240,Tue Apr 03 21:58:55 +0000 2012
412,883,Meadowlands Arena,4bf58dd8d48988d184941735,Stadium,40.81143815229546,-74.06779646873474,-240,Tue Apr 03 22:02:54 +0000 2012
415,973,The Hurricane Club,4bf58dd8d48988d11e941735,Bar,40.74227764235143,-73.98525553606459,-240,Tue Apr 03 22:04:54 +0000 2012
416,458,Fresh Creek Basin,4bf58dd8d48988d161941735,Other Great Outdoors,40.64250711434345,-73.88739668602256,-240,Tue Apr 03 22:05:19 +0000 2012
424,4,Abyssinian Baptist Church,4bf58dd8d48988d132941735,Church,40.81681580433024,-73.94139250202096,-240,Tue Apr 03 22:08:14 +0000 2012
427,940,L'Artusi,4bf58dd8d48988d110941735,Italian Restaurant,40.733848,-74.00505,-240,Tue Apr 03 22:08:48 +0000 2012
431,130,Times Square,4bf58dd8d48988d164941735,Plaza,40.756489872673846,-73.98626804351807,-240,Tue Apr 03 22:12:27 +0000 2012
433,186,Bravo Pizza,4bf58dd8d48988d1ca941735,Pizza Place,40.752067,-73.987573,-240,Tue Apr 03 22:12:32 +0000 2012
437,1009,Trinity Church Cemetery,4bf58dd8d48988d15c941735,Cemetery,40.70860892993973,-74.01209532819432,-240,Tue Apr 03 22:14:17 +0000 2012
439,354,Zuccotti Park,4bf58dd8d48988d163941735,Park,40.70919832245443,-74.01118576526642,-240,Tue Apr 03 22:14:57 +0000 2012
444,116,Petite Abeille,4bf58dd8d48988d10c941735,French Restaurant,40.73874326373426,-73.99455835710656,-240,Tue Apr 03 22:16:54 +0000 2012
446,78,Hudson River Park,4bf58dd8d48988d163941735,Park,40.73228891214305,-74.01051196130837,-240,Tue Apr 03 22:18:05 +0000 2012
451,26,Fort Lee Historic Park,4bf58dd8d48988d163941735,Park,40.85262124066219,-73.96257909949104,-240,Tue Apr 03 22:18:52 +0000 2012
457,989,Paley Center for Media,4bf58dd8d48988d181941735,Museum,40.76042728620973,-73.97769570350647,-240,Tue Apr 03 22:20:38 +0000 2012
464,987,Franchia,4bf58dd8d48988d1d3941735,Vegetarian / Vegan Restaurant,40.74755129813944,-73.98114057260048,-240,Tue Apr 03 22:24:25 +0000 2012
466,328,East River Esplanade South Dog Run,4bf58dd8d48988d1e5941735,Other Great Outdoors,40.70445913548654,-74.00578312188485,-240,Tue Apr 03 22:25:19 +0000 2012
475,772,C O Restaurant,4bf58dd8d48988d1ca941735,Pizza Place,40.74716991449647,-74.00063565038526,-240,Tue Apr 03 22:29:49 +0000 2012
482,593,Stop & Shop,4bf58dd8d48988d118951735,Food & Drink Shop,40.84274539270614,-74.1011783748029,-240,Tue Apr 03 22:33:06 +0000 2012
483,398,First Presbyterian Church,4bf58dd8d48988d132941735,Church,40.78596807973614,-73.81624281406403,-240,Tue Apr 03 22:33:36 +0000 2012
487,905,David Burke Townhouse,4bf58dd8d48988d157941735,American Restaurant,40.7636878120714,-73.96763001764619,-240,Tue Apr 03 22:34:59 +0000 2012
498,361,The Vinatta Project,4bf58dd8d48988d123941735,Bar,40.73946789133663,-74.00756777588721,-240,Tue Apr 03 22:38:39 +0000 2012
500,378,ShopRite Pharmacy,4bf58dd8d48988d118951735,Food & Drink Shop,40.85215695470352,-74.00433540344238,-240,Tue Apr 03 22:39:02 +0000 2012
501,85,Sahadi's,4bf58dd8d48988d1f5941735,Food & Drink Shop,40.69001786288236,-73.99341633242287,-240,Tue Apr 03 22:39:22 +0000 2012
505,101,Mable's Smokehouse & Banquet Hall,4bf58dd8d48988d1df931735,BBQ Joint,40.72114836390466,-73.95703732967377,-240,Tue Apr 03 22:41:46 +0000 2012
507,120,Vivi Bubble Tea,4bf58dd8d48988d112941735,Bar,40.71536265913705,-73.99738756483157,-240,Tue Apr 03 22:42:27 +0000 2012
508,134,Europan Bakery Cafe,4bf58dd8d48988d1ca941735,Pizza Place,40.7929378127389,-73.97319735356798,-240,Tue Apr 03 22:42:29 +0000 2012
512,650,Carnegie Hall,5032792091d4c4b30a586d5c,Concert Hall,40.76502267205817,-73.98019552230835,-240,Tue Apr 03 22:45:12 +0000 2012
514,319,ShopRite,4bf58dd8d48988d118951735,Food & Drink Shop,40.626571,-73.97696897971106,-240,Tue Apr 03 22:45:23 +0000 2012
517,432,Pizza 33,4bf58dd8d48988d1ca941735,Pizza Place,40.74510703877938,-73.9783501625061,-240,Tue Apr 03 22:46:26 +0000 2012
530,848,Yuca Bar & Restaurant,4bf58dd8d48988d150941735,Spanish Restaurant,40.7261153835653,-73.9836887612032,-240,Tue Apr 03 22:53:08 +0000 2012
536,434,Schnitzel Express,4bf58dd8d48988d115941735,Middle Eastern Restaurant,40.753422,-73.986822,-240,Tue Apr 03 22:54:49 +0000 2012
538,186,Magnet Theater,4bf58dd8d48988d135941735,Theater,40.74897597836296,-73.99518388533123,-240,Tue Apr 03 22:55:31 +0000 2012
541,100,"Carrie, The Musical",4bf58dd8d48988d137941735,Theater,40.73328971523911,-74.00576016802717,-240,Tue Apr 03 22:57:13 +0000 2012
544,1083,The Hog Pit,4bf58dd8d48988d1df931735,BBQ Joint,40.74455698610794,-73.99065019420007,-240,Tue Apr 03 22:59:03 +0000 2012
545,113,Hi Tea Hong Kong Style Cafe,4bf58dd8d48988d142941735,Asian Restaurant,40.748413,-73.756501,-240,Tue Apr 03 23:00:00 +0000 2012
548,415,Disney's MARY POPPINS at the New Amsterdam Theatre,4bf58dd8d48988d137941735,Theater,40.7560997756636,-73.98785591125488,-240,Tue Apr 03 23:02:02 +0000 2012
550,279,Turtle Bay NYC,4bf58dd8d48988d11d941735,Bar,40.75637696194763,-73.9676529760629,-240,Tue Apr 03 23:02:22 +0000 2012
552,649,Lucky's Famous Burgers,4bf58dd8d48988d16c941735,Burger Joint,40.72333140651591,-73.98953110205146,-240,Tue Apr 03 23:02:48 +0000 2012
553,615,Blind Pig,4bf58dd8d48988d11d941735,Bar,40.732758323855705,-73.98576631338501,-240,Tue Apr 03 23:03:11 +0000 2012
559,1042,Cinépolis Luxury Cinemas,4bf58dd8d48988d17f941735,Movie Theater,40.74490101607357,-73.99805899339255,-240,Tue Apr 03 23:06:05 +0000 2012
561,480,Short Cuts,4bf58dd8d48988d110951735,Salon / Barbershop,40.70784330368042,-73.80285859107971,-240,Tue Apr 03 23:06:33 +0000 2012
569,418,The Ginger Man,4bf58dd8d48988d116941735,Bar,40.74939032832351,-73.98286232535908,-240,Tue Apr 03 23:10:17 +0000 2012
573,17,Cafe Addis,4bf58dd8d48988d116941735,Bar,40.81218840604282,-73.95537557262166,-240,Tue Apr 03 23:11:54 +0000 2012
574,1059,McCarren Park Track,4bf58dd8d48988d187941735,Stadium,40.71994085251552,-73.95129203796387,-240,Tue Apr 03 23:13:16 +0000 2012
575,495,Central Park,4bf58dd8d48988d163941735,Park,40.7714256153356,-73.97350072860723,-240,Tue Apr 03 23:13:24 +0000 2012
577,500,Rusty Knot,4bf58dd8d48988d116941735,Bar,40.7352186567552,-74.00994920143108,-240,Tue Apr 03 23:13:38 +0000 2012
582,689,The Smith,4bf58dd8d48988d14e941735,American Restaurant,40.731155872068506,-73.98872764725327,-240,Tue Apr 03 23:15:02 +0000 2012
587,649,Dixon Place,4bf58dd8d48988d135941735,Theater,40.720582,-73.992714,-240,Tue Apr 03 23:16:46 +0000 2012
589,71,Potbelly,4bf58dd8d48988d1c5941735,Sandwich Place,40.753041896907845,-73.9890719854358,-240,Tue Apr 03 23:17:23 +0000 2012
592,367,Barbarini,4bf58dd8d48988d110941735,Italian Restaurant,40.70749794646211,-74.00208177676095,-240,Tue Apr 03 23:18:22 +0000 2012
594,824,Red Lobster,4bf58dd8d48988d1ce941735,Seafood Restaurant,40.93539993360483,-74.07136917114258,-240,Tue Apr 03 23:20:26 +0000 2012
596,1070,Dumbo Waterfront,4bf58dd8d48988d165941735,Scenic Lookout,40.70427281157053,-73.9867591687836,-240,Tue Apr 03 23:21:13 +0000 2012
603,215,West Hudson Park,4bf58dd8d48988d163941735,Park,40.75196932538404,-74.15222953676555,-240,Tue Apr 03 23:24:39 +0000 2012
606,800,Madison Square Garden,4bf58dd8d48988d184941735,Stadium,40.75044987008408,-73.99221103886612,-240,Tue Apr 03 23:27:13 +0000 2012
611,957,Command Parking,4c38df4de52ce0d596b336e1,Parking,40.764007,-73.981753,-240,Tue Apr 03 23:28:05 +0000 2012
612,226,St James Theatre,4bf58dd8d48988d137941735,Theater,40.75827778801546,-73.98802757263184,-240,Tue Apr 03 23:28:16 +0000 2012
613,645,Salsa Fever On 2 Dance Academy,4bf58dd8d48988d11f941735,Bar,40.742019,-74.048426,-240,Tue Apr 03 23:28:52 +0000 2012
614,669,Red,4bf58dd8d48988d1c1941735,Mexican Restaurant,40.70681451877362,-74.00384924971897,-240,Tue Apr 03 23:29:21 +0000 2012
615,936,Empire Shtiebel,4bf58dd8d48988d139941735,Synagogue,40.66436017920261,-73.94593883293109,-240,Tue Apr 03 23:29:52 +0000 2012
617,721,The Bell House,4bf58dd8d48988d1e9931735,Music Venue,40.673615,-73.99171,-240,Tue Apr 03 23:30:24 +0000 2012
620,291,The Dutch,4bf58dd8d48988d14e941735,American Restaurant,40.72645218916927,-74.00225967250508,-240,Tue Apr 03 23:30:54 +0000 2012
621,370,Cucina Di Pesce,4bf58dd8d48988d110941735,Italian Restaurant,40.726368,-73.98977,-240,Tue Apr 03 23:31:29 +0000 2012
626,470,Sushi Tatsu,4bf58dd8d48988d1d2941735,Sushi Restaurant,40.683178,-73.96574578,-240,Tue Apr 03 23:36:34 +0000 2012
627,218,Paulie Gee's,4bf58dd8d48988d1ca941735,Pizza Place,40.729813,-73.958467,-240,Tue Apr 03 23:36:55 +0000 2012
631,418,Legends New York City,4bf58dd8d48988d11b941735,Bar,40.74809415449163,-73.98609638214111,-240,Tue Apr 03 23:37:52 +0000 2012
633,348,Hotel Chantelle,4bf58dd8d48988d11e941735,Bar,40.71855465714273,-73.98899737888202,-240,Tue Apr 03 23:39:12 +0000 2012
634,152,Mexican Radio,4bf58dd8d48988d1c1941735,Mexican Restaurant,40.721660896654456,-73.99736460996738,-240,Tue Apr 03 23:39:16 +0000 2012
637,772,The McKittrick Hotel,4bf58dd8d48988d135941735,Theater,40.75081989112107,-74.0038664652844,-240,Tue Apr 03 23:40:35 +0000 2012
638,964,Arby's,4bf58dd8d48988d16e941735,Fast Food Restaurant,40.73828290651089,-73.79387855529785,-240,Tue Apr 03 23:41:35 +0000 2012
639,444,Riverwalk Bar & Grill,4bf58dd8d48988d14e941735,American Restaurant,40.75876539294497,-73.95249366760254,-240,Tue Apr 03 23:42:19 +0000 2012
641,943,Bowery Ballroom,4bf58dd8d48988d1e9931735,Music Venue,40.720480045234375,-73.99355980323412,-240,Tue Apr 03 23:43:28 +0000 2012
642,235,Ashton's Alley,4bf58dd8d48988d14e941735,American Restaurant,40.75554295707458,-73.97036778954721,-240,Tue Apr 03 23:43:40 +0000 2012
643,572,Pepe Patron,4bf58dd8d48988d1c1941735,Mexican Restaurant,40.7766506,-73.9527495,-240,Tue Apr 03 23:44:06 +0000 2012
645,539,Redemption,4bf58dd8d48988d116941735,Bar,40.75690783742642,-73.96722824491113,-240,Tue Apr 03 23:44:45 +0000 2012
646,802,Ooki Sushi,4bf58dd8d48988d1d2941735,Sushi Restaurant,40.780408,-73.9528491,-240,Tue Apr 03 23:45:10 +0000 2012
650,470,Sushi Tokyo,4bf58dd8d48988d1d2941735,Sushi Restaurant,40.62451266217383,-73.96507013702977,-240,Tue Apr 03 23:46:46 +0000 2012
652,470,Gen,4bf58dd8d48988d1d2941735,Sushi Restaurant,40.677611,-73.963748,-240,Tue Apr 03 23:47:16 +0000 2012
653,733,Union Square Cafe,4bf58dd8d48988d14e941735,American Restaurant,40.73686901343388,-73.9913446019438,-240,Tue Apr 03 23:47:47 +0000 2012
654,470,Miso Restaurant,4bf58dd8d48988d1d2941735,Sushi Restaurant,40.702752212783246,-73.99069610553344,-240,Tue Apr 03 23:47:49 +0000 2012
655,470,Ki Sushi,4bf58dd8d48988d1d2941735,Sushi Restaurant,40.687583,-73.989895,-240,Tue Apr 03 23:48:15 +0000 2012
660,470,Taro Sushi,4bf58dd8d48988d1d2941735,Sushi Restaurant,40.67969421204972,-73.97425174713135,-240,Tue Apr 03 23:48:51 +0000 2012
662,3,Saxon + Parole,4bf58dd8d48988d14e941735,American Restaurant,40.72516293205118,-73.992159523528,-240,Tue Apr 03 23:49:40 +0000 2012
663,297,Nobu Fifty Seven,4bf58dd8d48988d1d2941735,Sushi Restaurant,40.76377126336098,-73.9764404296875,-240,Tue Apr 03 23:49:53 +0000 2012
674,470,Haru Holding,4bf58dd8d48988d111941735,Japanese Restaurant,40.70543559708729,-74.00834819812775,-240,Tue Apr 03 23:51:33 +0000 2012
677,470,Fontana Sushi,4bf58dd8d48988d1d2941735,Sushi Restaurant,40.59927831004631,-73.99089122857772,-240,Tue Apr 03 23:52:01 +0000 2012
679,917,Shanghai Cafe,4bf58dd8d48988d145941735,Chinese Restaurant,40.717374,-73.997451,-240,Tue Apr 03 23:52:45 +0000 2012
680,882,Karaoke Duet 48,4bf58dd8d48988d120941735,Bar,40.753499070431374,-73.96910190582275,-240,Tue Apr 03 23:54:00 +0000 2012
682,882,Gagopa Karaoke,4bf58dd8d48988d120941735,Bar,40.747934,-73.987084,-240,Tue Apr 03 23:54:12 +0000 2012
683,882,Pulse Karaoke,4bf58dd8d48988d120941735,Bar,40.75485632616687,-73.98597836494446,-240,Tue Apr 03 23:54:31 +0000 2012
685,121,Truck Pit Cafe,4bf58dd8d48988d1c4941735,Restaurant,40.7415995466274,-74.00364875793457,-240,Tue Apr 03 23:55:24 +0000 2012
689,158,Liberty Theater,4d4b7104d754a06370d81259,Arts & Entertainment,40.75642699336543,-73.98893998920552,-240,Tue Apr 03 23:56:17 +0000 2012
691,882,Chubby Bunny CSA,4bf58dd8d48988d1d3941735,Vegetarian / Vegan Restaurant,40.7886571291708,-73.97767406359687,-240,Tue Apr 03 23:56:50 +0000 2012
692,882,U Cafe,4bf58dd8d48988d1d3941735,Vegetarian / Vegan Restaurant,40.78431506310489,-73.95204636182817,-240,Tue Apr 03 23:57:15 +0000 2012
693,882,V-Note,4bf58dd8d48988d1d3941735,Vegetarian / Vegan Restaurant,40.77267158641687,-73.95259166752487,-240,Tue Apr 03 23:57:40 +0000 2012
701,971,Edo Japanese Steak House,4bf58dd8d48988d111941735,Japanese Restaurant,40.89671114019839,-73.80454301834106,-240,Wed Apr 04 00:01:05 +0000 2012
702,69,Pat's Sports Bar,4bf58dd8d48988d11d941735,Bar,40.71285367012024,-73.87896,-240,Wed Apr 04 00:01:07 +0000 2012
706,463,Therapist Lounge,4bf58dd8d48988d121941735,Bar,40.78618128565642,-73.94290221718333,-240,Wed Apr 04 00:03:04 +0000 2012
708,254,Arturo's Pizzeria,4bf58dd8d48988d1ca941735,Pizza Place,40.874372,-73.91036466,-240,Wed Apr 04 00:03:13 +0000 2012
711,337,Hunan House,4bf58dd8d48988d145941735,Chinese Restaurant,40.83684163130469,-74.20795798301697,-240,Wed Apr 04 00:03:53 +0000 2012
715,84,Bierhaus NYC,4bf58dd8d48988d10d941735,German Restaurant,40.75274100802376,-73.97330797224723,-240,Wed Apr 04 00:04:48 +0000 2012
716,623,Lahore Deli,4bf58dd8d48988d10f941735,Indian Restaurant,40.72478133950822,-73.99623407950342,-240,Wed Apr 04 00:05:52 +0000 2012
721,354,China Express,4bf58dd8d48988d145941735,Chinese Restaurant,40.70600874237901,-73.95002584730794,-240,Wed Apr 04 00:07:36 +0000 2012
730,470,Sushi Gallery,4bf58dd8d48988d1d2941735,Sushi Restaurant,40.69767318211108,-73.99341344833374,-240,Wed Apr 04 00:10:17 +0000 2012
732,768,Paramus Park Fountain,4bf58dd8d48988d15a941735,Garden,40.9564888763106,-74.06877530709667,-240,Wed Apr 04 00:10:47 +0000 2012
734,768,Paramus Park Food Court,4bf58dd8d48988d120951735,Food & Drink Shop,40.95643122681711,-74.06887282865802,-240,Wed Apr 04 00:11:12 +0000 2012
736,470,Hana Cafe,4bf58dd8d48988d1d2941735,Sushi Restaurant,40.68382660694941,-73.99249811668923,-240,Wed Apr 04 00:12:07 +0000 2012
737,768,Nathan's Famous,4bf58dd8d48988d16f941735,Hot Dog Joint,40.95640875,-74.06885916666667,-240,Wed Apr 04 00:13:00 +0000 2012
738,470,Kiku Sushi,4bf58dd8d48988d1d2941735,Sushi Restaurant,40.66283350513327,-73.98510932922363,-240,Wed Apr 04 00:13:09 +0000 2012
739,148,The Way Station,4bf58dd8d48988d116941735,Bar,40.676829026053525,-73.96343804293127,-240,Wed Apr 04 00:13:17 +0000 2012
740,427,Keats Bar,4bf58dd8d48988d11b941735,Bar,40.75172062,-73.970707,-240,Wed Apr 04 00:13:23 +0000 2012
744,470,Ichi Sushi,4bf58dd8d48988d1d2941735,Sushi Restaurant,40.60168870449582,-73.99385822217761,-240,Wed Apr 04 00:13:51 +0000 2012
747,470,Yoshi Japanese,4bf58dd8d48988d1d2941735,Sushi Restaurant,40.68582029687352,-73.99108061251917,-240,Wed Apr 04 00:14:37 +0000 2012
748,943,One Mile House,4bf58dd8d48988d116941735,Bar,40.72023270282368,-73.99330729453456,-240,Wed Apr 04 00:14:46 +0000 2012
750,614,Diablo Royale,4bf58dd8d48988d1c1941735,Mexican Restaurant,40.734195,-74.00316,-240,Wed Apr 04 00:15:01 +0000 2012
755,372,Tebaya,4bf58dd8d48988d111941735,Japanese Restaurant,40.74134799014745,-73.99656692672868,-240,Wed Apr 04 00:16:09 +0000 2012
760,293,Lorimer & Metropolitan,4bf58dd8d48988d162941735,Other Great Outdoors,40.71430985040704,-73.94939443218914,-240,Wed Apr 04 00:19:13 +0000 2012
763,293,Metropolitan,4bf58dd8d48988d1d8941735,Bar,40.71362368518315,-73.94971014000632,-240,Wed Apr 04 00:19:44 +0000 2012
765,114,Five Guys Burgers & Fries,4bf58dd8d48988d16c941735,Burger Joint,40.7099236854583,-74.00718904041685,-240,Wed Apr 04 00:20:24 +0000 2012
767,623,Wild Project LLC,4bf58dd8d48988d137941735,Theater,40.72301578,-73.983394,-240,Wed Apr 04 00:22:04 +0000 2012
770,509,The Delancey,4bf58dd8d48988d1e9931735,Music Venue,40.717952061710704,-73.98541049112558,-240,Wed Apr 04 00:24:26 +0000 2012
773,637,Kiwiana,4bf58dd8d48988d1c4941735,Restaurant,40.67482848044601,-73.97626876831055,-240,Wed Apr 04 00:27:28 +0000 2012
775,1071,Akane,4bf58dd8d48988d1d2941735,Sushi Restaurant,40.74857575961519,-73.97521188597086,-240,Wed Apr 04 00:27:46 +0000 2012
781,417,Westville East,4bf58dd8d48988d14e941735,American Restaurant,40.728437304496765,-73.981822,-240,Wed Apr 04 00:30:44 +0000 2012
785,362,Tipsy Parson,4bf58dd8d48988d157941735,American Restaurant,40.744378,-74.002858,-240,Wed Apr 04 00:33:22 +0000 2012
791,361,Soho House US,4bf58dd8d48988d121941735,Bar,40.74051217947376,-74.00589215267118,-240,Wed Apr 04 00:34:53 +0000 2012
792,301,Rockefeller Center,4bf58dd8d48988d164941735,Plaza,40.758728399405584,-73.97855791454388,-240,Wed Apr 04 00:34:55 +0000 2012
794,806,Carmine's II,4bf58dd8d48988d1ca941735,Pizza Place,40.713518440079575,-73.95142069339633,-240,Wed Apr 04 00:35:54 +0000 2012
795,619,Bryant Park,4bf58dd8d48988d163941735,Park,40.75372797263211,-73.98368835767094,-240,Wed Apr 04 00:35:55 +0000 2012
797,682,Park Avenue Tavern,4bf58dd8d48988d116941735,Bar,40.75022784263701,-73.97899983849398,-240,Wed Apr 04 00:37:03 +0000 2012
798,827,Little Bay Dog Run,4bf58dd8d48988d1e5941735,Other Great Outdoors,40.787855984049095,-73.79333210698177,-240,Wed Apr 04 00:37:42 +0000 2012
799,90,Little Town NYC,4bf58dd8d48988d14e941735,American Restaurant,40.734853,-73.988588,-240,Wed Apr 04 00:38:51 +0000 2012
807,877,La Strada,4bf58dd8d48988d1ca941735,Pizza Place,40.638026,-73.999702,-240,Wed Apr 04 00:41:52 +0000 2012
811,339,Open Door Gastropub,4bf58dd8d48988d155941735,Gastropub,40.70780392,-74.006107,-240,Wed Apr 04 00:44:00 +0000 2012
812,281,Kearny Christian Academy,4bf58dd8d48988d132941735,Church,40.758491441288896,-74.15619169787516,-240,Wed Apr 04 00:44:00 +0000 2012
818,534,Talent Thai Kitchen,4bf58dd8d48988d149941735,Thai Restaurant,40.745554,-73.977511,-240,Wed Apr 04 00:47:01 +0000 2012
821,251,Greensquare Tavern,4bf58dd8d48988d157941735,American Restaurant,40.740690295685134,-73.99115521826296,-240,Wed Apr 04 00:47:44 +0000 2012
823,669,Popeye's Louisiana Kitchen,4d4ae6fc7a7b7dea34424761,Fried Chicken Joint,40.71596503257752,-73.995061,-240,Wed Apr 04 00:48:48 +0000 2012
830,804,Beacon Theatre,5032792091d4c4b30a586d5c,Concert Hall,40.78058919476669,-73.98073882807061,-240,Wed Apr 04 00:51:43 +0000 2012
834,505,Qi Esarn Thai Kitchen,4bf58dd8d48988d149941735,Thai Restaurant,40.736819,-73.995148,-240,Wed Apr 04 00:53:44 +0000 2012
835,389,Banc Cafe,4bf58dd8d48988d116941735,Bar,40.743313,-73.97992594014012,-240,Wed Apr 04 00:53:45 +0000 2012
837,818,Peculier Pub,4bf58dd8d48988d116941735,Bar,40.72820506950233,-73.99927559299557,-240,Wed Apr 04 00:55:22 +0000 2012
838,510,Park Bar,4bf58dd8d48988d123941735,Bar,40.73618108572264,-73.99221691224146,-240,Wed Apr 04 00:55:40 +0000 2012
842,887,Village Pourhouse,4bf58dd8d48988d11d941735,Bar,40.737741,-74.033078,-240,Wed Apr 04 00:57:20 +0000 2012
844,291,GMT Tavern,4bf58dd8d48988d155941735,Gastropub,40.72800677563629,-73.99914264678955,-240,Wed Apr 04 00:58:30 +0000 2012
846,265,Cascabel Taqueria,4d4b7105d754a06374d81259,Food,40.802926,-73.967636,-240,Wed Apr 04 00:59:44 +0000 2012
849,824,Northern Valley Evangelical Free Church,4bf58dd8d48988d132941735,Church,40.938765,-73.975662,-240,Wed Apr 04 01:01:10 +0000 2012
850,468,Public House 46 Sports Bar & Grill,4bf58dd8d48988d11b941735,Bar,40.87077690106772,-74.18019443750381,-240,Wed Apr 04 01:01:20 +0000 2012
856,912,Bareburger,4bf58dd8d48988d16c941735,Burger Joint,40.74613120785279,-73.97810339927673,-240,Wed Apr 04 01:05:21 +0000 2012
859,725,Gran Piatto d'Oro,4bf58dd8d48988d110941735,Italian Restaurant,40.801063276770165,-73.94721890430739,-240,Wed Apr 04 01:07:52 +0000 2012
860,751,Ruby Kitchen,4bf58dd8d48988d145941735,Chinese Restaurant,40.677625,-73.97298,-240,Wed Apr 04 01:08:43 +0000 2012
865,882,Karaoke Top Tunes,4bf58dd8d48988d120941735,Bar,40.7567136225224,-73.96682647133838,-240,Wed Apr 04 01:11:47 +0000 2012
866,530,Dirty Bird To-Go,4d4ae6fc7a7b7dea34424761,Fried Chicken Joint,40.73891709652379,-74.0003429806233,-240,Wed Apr 04 01:11:49 +0000 2012
867,593,Posh,4bf58dd8d48988d1d8941735,Bar,40.76430758425931,-73.98882150650024,-240,Wed Apr 04 01:11:54 +0000 2012
868,882,G Bar,4bf58dd8d48988d120941735,Bar,40.81938078095154,-73.92709267740237,-240,Wed Apr 04 01:12:19 +0000 2012
869,1066,Hill Country Barbecue Market,4bf58dd8d48988d1df931735,BBQ Joint,40.74434084563527,-73.99042637629252,-240,Wed Apr 04 01:12:48 +0000 2012
870,882,MK Karaoke,4bf58dd8d48988d120941735,Bar,40.747706,-73.98625592857142,-240,Wed Apr 04 01:13:14 +0000 2012
885,922,Teddy's Bar & Grill,4bf58dd8d48988d11b941735,Bar,40.719265,-73.958416,-240,Wed Apr 04 01:21:38 +0000 2012
890,145,Best Yet Market,4bf58dd8d48988d118951735,Food & Drink Shop,40.80581588142224,-73.95439403540375,-240,Wed Apr 04 01:25:24 +0000 2012
891,751,Lucky 13 Saloon,4bf58dd8d48988d116941735,Bar,40.666674206504105,-73.98817096588479,-240,Wed Apr 04 01:25:41 +0000 2012
895,524,Neerob,4bf58dd8d48988d10f941735,Indian Restaurant,40.83607241625187,-73.85480251436778,-240,Wed Apr 04 01:26:33 +0000 2012
897,881,Tropical Spanish Restaurant,4bf58dd8d48988d1be941735,Latin American Restaurant,40.83424989024898,-73.9452327809692,-240,Wed Apr 04 01:27:34 +0000 2012
899,370,Nuyorican Poets Cafe,4bf58dd8d48988d137941735,Theater,40.722205563815855,-73.98172023108505,-240,Wed Apr 04 01:29:14 +0000 2012
900,256,Terakawa Ramen,4bf58dd8d48988d1d1941735,Ramen /  Noodle House,40.739372213413816,-73.98498058319092,-240,Wed Apr 04 01:30:36 +0000 2012
904,424,Zuzu Ramen,4bf58dd8d48988d1d1941735,Ramen /  Noodle House,40.67868280539975,-73.98216214776504,-240,Wed Apr 04 01:31:34 +0000 2012
906,158,Raoul's,4bf58dd8d48988d10c941735,French Restaurant,40.726289,-74.00208,-240,Wed Apr 04 01:33:03 +0000 2012
907,152,Spring Lounge,4bf58dd8d48988d116941735,Bar,40.721941345858085,-73.9962589623642,-240,Wed Apr 04 01:37:47 +0000 2012
909,578,Jake's Saloon,4bf58dd8d48988d116941735,Bar,40.744279,-73.995839,-240,Wed Apr 04 01:39:47 +0000 2012
911,784,Chop Stix,4bf58dd8d48988d145941735,Chinese Restaurant,40.59135496616364,-73.940298,-240,Wed Apr 04 01:40:53 +0000 2012
913,752,Memorial Auditorium,4bf58dd8d48988d1ac941735,College Theater,40.860937117499375,-74.19676780700684,-240,Wed Apr 04 01:42:21 +0000 2012
915,697,The Stumble Inn,4bf58dd8d48988d116941735,Bar,40.771532064320695,-73.95629970544277,-240,Wed Apr 04 01:42:50 +0000 2012
916,218,B Cup Cafe,4bf58dd8d48988d1c5941735,Sandwich Place,40.728844,-73.978603,-240,Wed Apr 04 01:43:44 +0000 2012
921,905,The Blind Barber,4bf58dd8d48988d1d4941735,Bar,40.72705648280683,-73.98041169261889,-240,Wed Apr 04 01:47:41 +0000 2012
922,279,Midtown 1015,4bf58dd8d48988d116941735,Bar,40.75705234069542,-73.96721102606091,-240,Wed Apr 04 01:47:58 +0000 2012
924,1040,Balkanika,4bf58dd8d48988d1c0941735,Mediterranean Restaurant,40.76192747202448,-73.99004186799563,-240,Wed Apr 04 01:48:53 +0000 2012
927,360,Spritzenhaus,4bf58dd8d48988d117941735,Beer Garden,40.72321775167592,-73.95275115966797,-240,Wed Apr 04 01:49:54 +0000 2012
931,906,Duke's,4bf58dd8d48988d1df931735,BBQ Joint,40.73761,-73.987941,-240,Wed Apr 04 01:55:42 +0000 2012
932,365,Josie Robertson Plaza,4bf58dd8d48988d164941735,Plaza,40.7722274447236,-73.98302876064133,-240,Wed Apr 04 01:56:11 +0000 2012
935,102,Le Toukouleur,4bf58dd8d48988d1c8941735,African Restaurant,40.686414660176055,-73.95463511518253,-240,Wed Apr 04 01:59:36 +0000 2012
940,318,Wicked Willy's,4bf58dd8d48988d116941735,Bar,40.728345706846646,-73.9994477526927,-240,Wed Apr 04 02:02:10 +0000 2012
944,139,Todd English Food Hall,4bf58dd8d48988d120951735,Food & Drink Shop,40.7645026089675,-73.9740800857544,-240,Wed Apr 04 02:05:42 +0000 2012
945,882,Karaoke Wow,4bf58dd8d48988d120941735,Bar,40.74761866887455,-73.98646073879884,-240,Wed Apr 04 02:05:58 +0000 2012
946,565,The Gaf,4bf58dd8d48988d118941735,Bar,40.77867,-73.948125,-240,Wed Apr 04 02:06:00 +0000 2012
947,882,Rock & Rose,4bf58dd8d48988d1e9931735,Music Venue,40.75672723487268,-73.96672889763002,-240,Wed Apr 04 02:06:35 +0000 2012
949,882,Japas 55,4bf58dd8d48988d120941735,Bar,40.76516893906916,-73.98327469825745,-240,Wed Apr 04 02:07:07 +0000 2012
950,882,Karaoke Shout,4bf58dd8d48988d120941735,Bar,40.75789135498701,-73.92001066279377,-240,Wed Apr 04 02:07:54 +0000 2012
952,448,Mickey Mantle's Restaurant,4bf58dd8d48988d14e941735,American Restaurant,40.76536396124975,-73.97578597068787,-240,Wed Apr 04 02:09:43 +0000 2012
956,496,The Parlour,4bf58dd8d48988d116941735,Bar,40.7885466814834,-73.97696812777984,-240,Wed Apr 04 02:12:25 +0000 2012
957,882,Second on Second,4bf58dd8d48988d120941735,Bar,40.72453440892317,-73.99054689365978,-240,Wed Apr 04 02:12:31 +0000 2012
958,570,Dance With Me SoHo,4bf58dd8d48988d134941735,Performing Arts Venue,40.72259324307306,-74.00079633163301,-240,Wed Apr 04 02:12:42 +0000 2012
970,470,BBQ Restaurant,4bf58dd8d48988d1df931735,BBQ Joint,40.73287356825004,-73.9975941550718,-240,Wed Apr 04 02:18:21 +0000 2012
975,470,Ed Mitchell BBQ Tent,4bf58dd8d48988d1df931735,BBQ Joint,40.741209362255695,-73.98768424987793,-240,Wed Apr 04 02:20:09 +0000 2012
978,1059,Kinfolk 90,4bf58dd8d48988d11e941735,Bar,40.7216130038783,-73.95814221792891,-240,Wed Apr 04 02:21:54 +0000 2012
989,620,180th And Washington,4d4b7105d754a06377d81259,Outdoors & Recreation,40.850649632367606,-73.89570515031271,-240,Wed Apr 04 02:28:02 +0000 2012
990,535,Hop Kee,4bf58dd8d48988d145941735,Chinese Restaurant,40.71446356428516,-73.9988279770589,-240,Wed Apr 04 02:29:46 +0000 2012
991,10,Vegetarian Dim Sum House,4bf58dd8d48988d1d3941735,Vegetarian / Vegan Restaurant,40.71495220056804,-73.99824837025356,-240,Wed Apr 04 02:30:04 +0000 2012
994,246,Food Emporium,4bf58dd8d48988d118951735,Food & Drink Shop,40.759769494984965,-73.96155742041213,-240,Wed Apr 04 02:31:54 +0000 2012
998,246,East River,4eb1d4dd4b900d56c88a45fd,River,40.735604988736725,-73.9719633703152,-240,Wed Apr 04 02:32:50 +0000 2012
999,698,Diinonn,4bf58dd8d48988d181941735,Museum,40.644099068159,-74.09980183101945,-240,Wed Apr 04 02:41:11 +0000 2012
1022,317,Hard Rock Cafe,4bf58dd8d48988d14e941735,American Restaurant,40.75688403086968,-73.9865630865097,-240,Wed Apr 04 03:16:15 +0000 2012
1024,802,Roll N Roaster,4bf58dd8d48988d14e941735,American Restaurant,40.58414368954832,-73.93951538728527,-240,Wed Apr 04 03:18:07 +0000 2012
1028,895,Stephenson Park,4bf58dd8d48988d163941735,Park,40.91788113806607,-73.77322459332524,-240,Wed Apr 04 03:21:12 +0000 2012
1029,882,Willow Lake,4bf58dd8d48988d161941735,Other Great Outdoors,40.720771,-73.833784,-240,Wed Apr 04 03:21:26 +0000 2012
1034,65,Johnny Rockets,4bf58dd8d48988d16c941735,Burger Joint,40.73855929950341,-74.03072834014893,-240,Wed Apr 04 03:23:40 +0000 2012
1038,296,The Irish Exit,4bf58dd8d48988d11b941735,Bar,40.75608725117609,-73.96758984041038,-240,Wed Apr 04 03:28:41 +0000 2012
1050,623,Conspicuous Consumption,4bf58dd8d48988d121941735,Bar,40.7251711375904,-73.98317223921723,-240,Wed Apr 04 03:46:07 +0000 2012
1054,185,Gardner Field,4bf58dd8d48988d163941735,Park,40.96541698333333,-74.06291968333333,-240,Wed Apr 04 03:48:10 +0000 2012
1057,584,Parking Lot F,4c38df4de52ce0d596b336e1,Parking,40.67274110989961,-74.18081712967889,-240,Wed Apr 04 03:50:40 +0000 2012
1063,1013,Nyonya,4bf58dd8d48988d156941735,Malaysian Restaurant,40.719209382315626,-73.99687107972214,-240,Wed Apr 04 03:56:54 +0000 2012
1066,837,100 Fun,4bf58dd8d48988d120941735,Bar,40.63357692052703,-74.00645452100342,-240,Wed Apr 04 04:03:31 +0000 2012
1067,458,Bar Corvo,4bf58dd8d48988d110941735,Italian Restaurant,40.673103420096126,-73.96270751953125,-240,Wed Apr 04 04:04:10 +0000 2012
1068,943,Alan's Falafel WTC 2,4bf58dd8d48988d1cb941735,Food Truck,40.713437,-74.01143954,-240,Wed Apr 04 04:04:29 +0000 2012
1072,34,Neptune Diner,4bf58dd8d48988d147941735,Diner,40.77062934379982,-73.91698122024536,-240,Wed Apr 04 04:07:33 +0000 2012
1073,318,Le Souk Restaurant & Lounge,4bf58dd8d48988d119941735,Bar,40.72789007835151,-73.99897144381916,-240,Wed Apr 04 04:08:37 +0000 2012
1082,706,Popeyes Louisiana Kitchen,4d4ae6fc7a7b7dea34424761,Fried Chicken Joint,40.70239645717224,-73.79117782747943,-240,Wed Apr 04 04:15:27 +0000 2012
1086,882,Bowne Park Pond,4bf58dd8d48988d161941735,Other Great Outdoors,40.77043433707116,-73.80838394165039,-240,Wed Apr 04 04:19:42 +0000 2012
1087,882,Alley Pond Park,4bf58dd8d48988d161941735,Other Great Outdoors,40.75938302072112,-73.75877380371094,-240,Wed Apr 04 04:20:24 +0000 2012
1088,629,Crooked Knife,4bf58dd8d48988d11b941735,Bar,40.744962,-73.984296,-240,Wed Apr 04 04:21:08 +0000 2012
1090,882,Commons Lake,4bf58dd8d48988d161941735,Other Great Outdoors,40.94020292488386,-74.12499098459513,-240,Wed Apr 04 04:21:38 +0000 2012
1092,868,Rivington F&B,4bf58dd8d48988d118941735,Bar,40.7192380953274,-73.98558840233771,-240,Wed Apr 04 04:23:42 +0000 2012
1097,706,Domino's Pizza,4bf58dd8d48988d1ca941735,Pizza Place,40.679172,-73.759354,-240,Wed Apr 04 04:27:22 +0000 2012
1098,839,Pj's Cocktail Lounge,4bf58dd8d48988d11e941735,Bar,40.81388152,-73.94479036331177,-240,Wed Apr 04 04:27:46 +0000 2012
1113,335,Mambi Steak House Bar & Grill,4bf58dd8d48988d150941735,Spanish Restaurant,40.847687,-73.93797,-240,Wed Apr 04 04:40:35 +0000 2012
1115,768,Taco Bell,4bf58dd8d48988d1c1941735,Mexican Restaurant,40.7694623998084,-74.0438138726682,-240,Wed Apr 04 04:46:00 +0000 2012
1123,413,This Little Piggy Had Roast Beef,4bf58dd8d48988d1df931735,BBQ Joint,40.728308,-73.984781,-240,Wed Apr 04 04:58:06 +0000 2012
1125,470,Harlem Bar-B-Q,4bf58dd8d48988d1df931735,BBQ Joint,40.81151906268103,-73.95027267265735,-240,Wed Apr 04 05:02:33 +0000 2012
1135,248,Vodou Bar,4bf58dd8d48988d121941735,Bar,40.68193081222049,-73.94995122562862,-240,Wed Apr 04 05:09:52 +0000 2012
1141,120,Newkirk Plaza,4bf58dd8d48988d164941735,Plaza,40.63578842250358,-73.96276851130986,-240,Wed Apr 04 05:13:19 +0000 2012
1145,983,Rosetta Wines,4bf58dd8d48988d119951735,Food & Drink Shop,40.70592211669592,-74.00962211582438,-240,Wed Apr 04 05:15:15 +0000 2012
1148,470,Traditional Xinjiang Barbecue Cart 新疆羊肉串,4bf58dd8d48988d1cb941735,Food Truck,40.75795271607545,-73.82915496826172,-240,Wed Apr 04 05:18:00 +0000 2012
1150,882,The Saratoga,4bf58dd8d48988d161941735,Other Great Outdoors,40.769953,-73.955307,-240,Wed Apr 04 05:21:57 +0000 2012
1151,882,East River Esplanade - E 96 to E 125 St,4bf58dd8d48988d165941735,Scenic Lookout,40.78272676703888,-73.94368529319763,-240,Wed Apr 04 05:22:27 +0000 2012
1154,882,In The Middle Of The Ocean,4bf58dd8d48988d161941735,Other Great Outdoors,40.66095994222035,-74.0498953339026,-240,Wed Apr 04 05:23:46 +0000 2012
1156,629,L'Express,4bf58dd8d48988d10c941735,French Restaurant,40.73821643777286,-73.9878495820916,-240,Wed Apr 04 05:30:37 +0000 2012
1157,983,J's Wine and Spirits,4bf58dd8d48988d119951735,Food & Drink Shop,40.70211111268,-73.986679,-240,Wed Apr 04 05:33:28 +0000 2012
1158,413,The Levee,4bf58dd8d48988d118941735,Bar,40.71643185437982,-73.96150576233745,-240,Wed Apr 04 05:35:05 +0000 2012
1161,509,Ritz Bar and Lounge,4bf58dd8d48988d1d8941735,Bar,40.760871,-73.990166,-240,Wed Apr 04 05:44:15 +0000 2012
1162,470,Aporkapalypse,4bf58dd8d48988d1df931735,BBQ Joint,40.754239442120216,-73.99941332076565,-240,Wed Apr 04 05:47:12 +0000 2012
1165,983,Beacon Wines & Spirits,4bf58dd8d48988d119951735,Food & Drink Shop,40.78033484009698,-73.98136440133142,-240,Wed Apr 04 05:57:27 +0000 2012
1167,50,Estimated Travel Times Sign,4bf58dd8d48988d165941735,Scenic Lookout,40.61627309689468,-74.15890954254121,-240,Wed Apr 04 05:58:28 +0000 2012
1168,882,Jacqueline Kennedy Onassis Reservoir,4bf58dd8d48988d161941735,Other Great Outdoors,40.78447335869806,-73.96120548248291,-240,Wed Apr 04 06:01:23 +0000 2012
1169,882,Bailey Fountain,4bf58dd8d48988d161941735,Other Great Outdoors,40.67383576248909,-73.97026062011719,-240,Wed Apr 04 06:01:43 +0000 2012
1171,882,Coney Island Beach & Boardwalk,4bf58dd8d48988d1e2941735,Beach,40.57334843776636,-73.98030281066895,-240,Wed Apr 04 06:03:19 +0000 2012
1178,983,Land & Sea Restaurant,4bf58dd8d48988d147941735,Diner,40.87789013729129,-73.90588497746137,-240,Wed Apr 04 06:14:32 +0000 2012
1184,983,Munch Time Diner,4bf58dd8d48988d147941735,Diner,40.8400049506533,-73.91633410609985,-240,Wed Apr 04 06:31:27 +0000 2012
1186,768,Hudson County Park Lake,4bf58dd8d48988d161941735,Other Great Outdoors,40.80227784854576,-73.99948596954346,-240,Wed Apr 04 06:36:27 +0000 2012
1188,768,The Camizzi Car Hold,4c38df4de52ce0d596b336e1,Parking,40.80331737923849,-74.00635242462158,-240,Wed Apr 04 06:36:48 +0000 2012
1197,458,Royal Fried Chicken,4bf58dd8d48988d14f941735,Southern / Soul Food Restaurant,40.656123118665,-73.91497345462386,-240,Wed Apr 04 06:55:57 +0000 2012
1201,881,Ding Dong Lounge,4bf58dd8d48988d116941735,Bar,40.798840875789125,-73.96306123830033,-240,Wed Apr 04 07:08:46 +0000 2012
1209,983,East End Bar & Grill,4bf58dd8d48988d11b941735,Bar,40.777423,-73.948947,-240,Wed Apr 04 07:20:52 +0000 2012
1220,582,South Beach Boardwalk,4bf58dd8d48988d1e2941735,Beach,40.59029692668765,-74.06643390655518,-240,Wed Apr 04 07:40:19 +0000 2012
1225,593,Renaissance Diner,4bf58dd8d48988d147941735,Diner,40.764430266666665,-73.987953,-240,Wed Apr 04 08:14:26 +0000 2012
1241,528,James J Walker Park,4bf58dd8d48988d163941735,Park,40.72973295583471,-74.00623072155904,-240,Wed Apr 04 10:04:36 +0000 2012
1267,396,J. Hood Wright Park Dog Run,4bf58dd8d48988d1e5941735,Other Great Outdoors,40.8465953797366,-73.94228225952985,-240,Wed Apr 04 10:43:38 +0000 2012
1268,396,J. Hood Wright Park,4bf58dd8d48988d163941735,Park,40.8463461517002,-73.94103527069092,-240,Wed Apr 04 10:44:03 +0000 2012
1272,241,103.5 Ktu,4bf58dd8d48988d1e5931735,Music Venue,40.71971101647132,-74.00456656363339,-240,Wed Apr 04 10:49:44 +0000 2012
1302,708,Fickle Filly,4bf58dd8d48988d1d6941735,Bar,40.690236670503175,-73.72461926919704,-240,Wed Apr 04 11:14:23 +0000 2012
1315,24,Riverside Park,4bf58dd8d48988d163941735,Park,40.79962395900535,-73.97343267040648,-240,Wed Apr 04 11:28:14 +0000 2012
1335,288,Gigi Cafe,4bf58dd8d48988d14e941735,American Restaurant,40.74733835203195,-73.98198997255602,-240,Wed Apr 04 11:43:04 +0000 2012
1382,489,Bayway Circle Amoco,4bf58dd8d48988d162941735,Other Great Outdoors,40.650641014449874,-74.22077894210815,-240,Wed Apr 04 12:06:49 +0000 2012
1398,153,Tonelli Cafe & Bar,4bf58dd8d48988d110941735,Italian Restaurant,40.82919,-73.948376,-240,Wed Apr 04 12:10:55 +0000 2012
1400,145,Dean Deluca,4bf58dd8d48988d1f5941735,Food & Drink Shop,40.72413519041223,-73.99778927450977,-240,Wed Apr 04 12:11:45 +0000 2012
1416,164,Tarallucci e Vino Restaurant,4bf58dd8d48988d123941735,Bar,40.737977,-73.99069,-240,Wed Apr 04 12:19:19 +0000 2012
1436,391,NJ Transit Weehawken Lot,4c38df4de52ce0d596b336e1,Parking,40.76366213713549,-74.02338791877044,-240,Wed Apr 04 12:25:36 +0000 2012
1470,354,Liberty Tower,4deefb944765f83613cdba6e,Historic Site,40.70875101828792,-74.00949597358704,-240,Wed Apr 04 12:34:52 +0000 2012
1499,354,"Brookfield Place New York, Waterfront Plaza",4bf58dd8d48988d164941735,Plaza,40.7133335138603,-74.01606043481961,-240,Wed Apr 04 12:47:52 +0000 2012
1517,203,L A Gourmet,4bf58dd8d48988d120951735,Food & Drink Shop,40.74681866964715,-73.94420526985277,-240,Wed Apr 04 12:53:22 +0000 2012
1547,332,Fairway Market,4bf58dd8d48988d118951735,Food & Drink Shop,40.81967266642876,-73.95994453399868,-240,Wed Apr 04 13:04:58 +0000 2012
1557,136,Pret A Manger,4bf58dd8d48988d1c5941735,Sandwich Place,40.72738829483809,-74.00709722564442,-240,Wed Apr 04 13:07:24 +0000 2012
1558,649,Theodore Roosevelt Birthplace National Historic Site,4bf58dd8d48988d190941735,History Museum,40.738818,-73.98878,-240,Wed Apr 04 13:07:24 +0000 2012
1587,184,Hana Food,4bf58dd8d48988d1f9941735,Food & Drink Shop,40.70621215482598,-73.9225516455076,-240,Wed Apr 04 13:20:41 +0000 2012
1594,880,Fine Fare Supermarkets,4bf58dd8d48988d118951735,Food & Drink Shop,40.790421466158406,-73.9454394305906,-240,Wed Apr 04 13:24:55 +0000 2012
1613,424,City Hall Park Fountain,4bf58dd8d48988d162941735,Other Great Outdoors,40.712060399562745,-74.00715460988235,-240,Wed Apr 04 13:32:16 +0000 2012
1618,74,NJCU Westside Parking Lot,4c38df4de52ce0d596b336e1,Parking,40.711647712370166,-74.09326884628652,-240,Wed Apr 04 13:34:21 +0000 2012
1644,74,Bill's Lunch Truck,4bf58dd8d48988d1cb941735,Food Truck,40.70939362049103,-74.08888436666666,-240,Wed Apr 04 13:44:26 +0000 2012
1645,436,72nd Street Barber Shop,4bf58dd8d48988d110951735,Salon / Barbershop,40.777332817848446,-73.978451,-240,Wed Apr 04 13:44:33 +0000 2012
1658,276,Piccolo Cafe,4bf58dd8d48988d110941735,Italian Restaurant,40.74994731802104,-73.98151516914368,-240,Wed Apr 04 13:50:48 +0000 2012
1675,445,Wafels & Dinges - Herald Square,4bf58dd8d48988d1cb941735,Food Truck,40.76826484861582,-73.9824378490448,-240,Wed Apr 04 13:59:50 +0000 2012
1681,528,Hot 97,4bf58dd8d48988d1e5931735,Music Venue,40.7289214304988,-74.00715460988235,-240,Wed Apr 04 14:03:54 +0000 2012
1706,185,Bacari Grill,4bf58dd8d48988d14e941735,American Restaurant,40.965368733333335,-74.06283225,-240,Wed Apr 04 14:22:57 +0000 2012
1714,16,Minado Restaurant,4bf58dd8d48988d1ce941735,Seafood Restaurant,40.8541298046618,-74.03318232245012,-240,Wed Apr 04 14:31:24 +0000 2012
1727,829,Umberto's,4bf58dd8d48988d1ca941735,Pizza Place,40.732364569250656,-73.68757724761963,-240,Wed Apr 04 14:41:10 +0000 2012
1728,179,Church of the Atonement Episcopal,4bf58dd8d48988d132941735,Church,40.9250807762146,-74.1067879,-240,Wed Apr 04 14:41:11 +0000 2012
1731,768,The Camizzi Grapevine,4bf58dd8d48988d1de941735,Other Great Outdoors,40.803367614746094,-74.0064468383789,-240,Wed Apr 04 14:44:23 +0000 2012
1734,184,A Gathering of the Tribes,4bf58dd8d48988d1e2931735,Art Gallery,40.72172024902872,-73.97979759474113,-240,Wed Apr 04 14:45:40 +0000 2012
1765,491,Cafeteria,4bf58dd8d48988d157941735,American Restaurant,40.74065934700641,-73.99826558632256,-240,Wed Apr 04 14:57:21 +0000 2012
1809,281,Franklin Reformed Church,4bf58dd8d48988d132941735,Church,40.81919256285133,-74.16168987751007,-240,Wed Apr 04 15:37:59 +0000 2012
1822,217,Fresh Fruit & Shakes Stand,4bf58dd8d48988d1cb941735,Food Truck,40.75556338853696,-73.97573232650757,-240,Wed Apr 04 15:53:41 +0000 2012
1827,296,Just Salad,4bf58dd8d48988d1bd941735,Salad Place,40.75254117265956,-73.9883660914967,-240,Wed Apr 04 15:59:05 +0000 2012
1839,180,Dynasty Buffet,4bf58dd8d48988d145941735,Chinese Restaurant,40.897141999964994,-74.09510429950069,-240,Wed Apr 04 16:07:22 +0000 2012
1840,132,Energy Kitchen,4bf58dd8d48988d1c5941735,Sandwich Place,40.74189364184281,-73.99029438099387,-240,Wed Apr 04 16:07:25 +0000 2012
1841,359,Applebee's,4bf58dd8d48988d14e941735,American Restaurant,40.80661783692852,-73.94236262452286,-240,Wed Apr 04 16:08:09 +0000 2012
1843,504,Muscle Maker Grill,4bf58dd8d48988d1c5941735,Sandwich Place,40.7182298,-74.037218,-240,Wed Apr 04 16:08:18 +0000 2012
1856,798,Cachapas Y Mas,4bf58dd8d48988d1be941735,Latin American Restaurant,40.86196839809418,-73.925085,-240,Wed Apr 04 16:13:57 +0000 2012
1857,677,Neil's Pizzeria,4bf58dd8d48988d1ca941735,Pizza Place,40.875928,-74.140706,-240,Wed Apr 04 16:14:36 +0000 2012
1859,715,Bistro Caterers,4bf58dd8d48988d14e941735,American Restaurant,40.75046894256904,-73.97637697628132,-240,Wed Apr 04 16:15:05 +0000 2012
1860,521,Naya Express,4bf58dd8d48988d115941735,Middle Eastern Restaurant,40.751656,-73.974075,-240,Wed Apr 04 16:15:51 +0000 2012
1890,541,A&P,4bf58dd8d48988d118951735,Food & Drink Shop,40.89883303700218,-74.09218477332547,-240,Wed Apr 04 16:31:43 +0000 2012
1894,572,Ranch 1,4bf58dd8d48988d16e941735,Fast Food Restaurant,40.75916782779969,-73.9682154564175,-240,Wed Apr 04 16:33:11 +0000 2012
1898,443,Laisla Restaurants,4bf58dd8d48988d1be941735,Latin American Restaurant,40.64515598904987,-74.01021890317702,-240,Wed Apr 04 16:36:50 +0000 2012
1899,797,Monster Sushi,4bf58dd8d48988d1d2941735,Sushi Restaurant,40.75671,-73.980519,-240,Wed Apr 04 16:37:01 +0000 2012
1901,682,Atlas Sculpture at International Building,4bf58dd8d48988d166941735,Sculpture Garden,40.75892111759599,-73.9771919613682,-240,Wed Apr 04 16:37:34 +0000 2012
1915,473,Players Theatre,4bf58dd8d48988d135941735,Theater,40.73012815477761,-74.00051513936097,-240,Wed Apr 04 16:44:46 +0000 2012
1916,698,Gerardi's Farmer Market & Nursery,4bf58dd8d48988d15b941735,Other Great Outdoors,40.64531077747643,-74.09364740997698,-240,Wed Apr 04 16:44:51 +0000 2012
1918,43,Astoria Seafood,4bf58dd8d48988d1ce941735,Seafood Restaurant,40.7542617,-73.92955,-240,Wed Apr 04 16:44:58 +0000 2012
1930,793,Potbelly Sandwich Shop,4bf58dd8d48988d1c5941735,Sandwich Place,40.74911052567003,-73.98414215157968,-240,Wed Apr 04 16:51:32 +0000 2012
1931,541,Wendy's,4bf58dd8d48988d16e941735,Fast Food Restaurant,40.89377403259277,-74.11579728126526,-240,Wed Apr 04 16:51:50 +0000 2012
1936,56,New York Public Library Terrace,4bf58dd8d48988d163941735,Park,40.753322521807306,-73.98147344600336,-240,Wed Apr 04 16:52:39 +0000 2012
1940,649,The Lee Strasberg Theatre & Film Institute,4bf58dd8d48988d1ac941735,College Theater,40.73506873749967,-73.98890800774097,-240,Wed Apr 04 16:53:51 +0000 2012
1944,912,Hill Country Chicken,4d4ae6fc7a7b7dea34424761,Fried Chicken Joint,40.743107753743374,-73.98923841533589,-240,Wed Apr 04 16:55:39 +0000 2012
1948,134,Juliette,4bf58dd8d48988d10c941735,French Restaurant,40.71705412035373,-73.95928502082825,-240,Wed Apr 04 16:57:43 +0000 2012
1950,539,Heavenly Bamboo,4bf58dd8d48988d145941735,Chinese Restaurant,40.75140225,-73.981389,-240,Wed Apr 04 16:59:08 +0000 2012
1952,240,No. 1 Chinese Restaurant,4bf58dd8d48988d145941735,Chinese Restaurant,40.68740845679963,-73.97741579469607,-240,Wed Apr 04 16:59:24 +0000 2012
1955,762,Herald Square,4bf58dd8d48988d164941735,Plaza,40.74982540095488,-73.98796319961548,-240,Wed Apr 04 17:00:16 +0000 2012
1958,10,Thai Palate,4bf58dd8d48988d149941735,Thai Restaurant,40.756876,-73.99371338,-240,Wed Apr 04 17:01:17 +0000 2012
1960,514,Grimaldi's,4bf58dd8d48988d1ca941735,Pizza Place,40.7412605405352,-73.9939557821161,-240,Wed Apr 04 17:02:07 +0000 2012
1962,378,Perfect Pizza,4bf58dd8d48988d1ca941735,Pizza Place,40.79370376458118,-74.01972708098904,-240,Wed Apr 04 17:03:33 +0000 2012
1963,144,Yankee Stadium,4bf58dd8d48988d18c941735,Stadium,40.82827721161922,-73.92655344439045,-240,Wed Apr 04 17:03:37 +0000 2012
1964,128,McGarry's,4bf58dd8d48988d116941735,Bar,40.75302361800699,-73.99680376052856,-240,Wed Apr 04 17:03:38 +0000 2012
1969,514,BBQue's Smoke Shack,4bf58dd8d48988d1df931735,BBQ Joint,40.74143884860924,-73.99381231160116,-240,Wed Apr 04 17:05:49 +0000 2012
1976,751,Cafe Blossom,4bf58dd8d48988d1d3941735,Vegetarian / Vegan Restaurant,40.72989152243776,-74.00355658486964,-240,Wed Apr 04 17:08:29 +0000 2012
1977,362,Yama,4bf58dd8d48988d1d2941735,Sushi Restaurant,40.730047,-74.003214,-240,Wed Apr 04 17:08:43 +0000 2012
1981,110,Wichcraft,4bf58dd8d48988d1c5941735,Sandwich Place,40.75453530111441,-73.98405253887177,-240,Wed Apr 04 17:10:48 +0000 2012
1982,956,Herbert Von King Park,4bf58dd8d48988d163941735,Park,40.68955477274905,-73.94609928131104,-240,Wed Apr 04 17:11:51 +0000 2012
1983,948,Smith's Bar & Restaurant,4bf58dd8d48988d116941735,Bar,40.75856600358517,-73.9889859009481,-240,Wed Apr 04 17:13:18 +0000 2012
1984,489,Madison Salon,4bf58dd8d48988d110951735,Salon / Barbershop,40.67773952957127,-74.20176480483575,-240,Wed Apr 04 17:14:14 +0000 2012
1987,803,Naples 45 Ristorante e Pizzeria,4bf58dd8d48988d110941735,Italian Restaurant,40.75383838696281,-73.97610247135162,-240,Wed Apr 04 17:14:46 +0000 2012
1994,503,Met Food,4bf58dd8d48988d118951735,Food & Drink Shop,40.64032005022178,-74.01556121463634,-240,Wed Apr 04 17:16:23 +0000 2012
1998,931,Veronica's Kitchen,4bf58dd8d48988d1cb941735,Food Truck,40.705602,-74.006405,-240,Wed Apr 04 17:17:26 +0000 2012
1999,503,5th Ave Sunset Park,4bf58dd8d48988d162941735,Other Great Outdoors,40.642926465040816,-74.01415535768307,-240,Wed Apr 04 17:17:34 +0000 2012
2001,503,Tulcingo Restaurant,4bf58dd8d48988d1c1941735,Mexican Restaurant,40.64193372043295,-74.01362170315063,-240,Wed Apr 04 17:17:54 +0000 2012
2005,778,Gourmet Garage,4bf58dd8d48988d1f5941735,Food & Drink Shop,40.72318463780709,-74.00254660077628,-240,Wed Apr 04 17:21:31 +0000 2012
2007,129,Num Pang Sandwich Shop,4bf58dd8d48988d1c5941735,Sandwich Place,40.75064359225685,-73.9761416630434,-240,Wed Apr 04 17:22:53 +0000 2012
2009,826,Hale & Hearty,4bf58dd8d48988d1dd931735,Soup Place,40.760165484725,-73.983080412941,-240,Wed Apr 04 17:23:27 +0000 2012
2014,32,Kalustyan's,4bf58dd8d48988d1f5941735,Food & Drink Shop,40.74287041059062,-73.98243762777861,-240,Wed Apr 04 17:25:36 +0000 2012
2018,610,Picnic Grove,4bf58dd8d48988d163941735,Park,40.7041556516367,-73.99244646692361,-240,Wed Apr 04 17:27:52 +0000 2012
2023,699,Brother Jimmy's BBQ,4bf58dd8d48988d1df931735,BBQ Joint,40.73559207942734,-73.98869276046753,-240,Wed Apr 04 17:29:21 +0000 2012
2025,516,Iron Monkey,4bf58dd8d48988d116941735,Bar,40.71565172927075,-74.0356953922729,-240,Wed Apr 04 17:29:46 +0000 2012
2028,653,Ridgewood Thai,4bf58dd8d48988d149941735,Thai Restaurant,40.70014057621071,-73.89948891570313,-240,Wed Apr 04 17:30:14 +0000 2012
2033,565,"Social Bar, Grill & Lounge",4bf58dd8d48988d116941735,Bar,40.76119392605275,-73.98700594707448,-240,Wed Apr 04 17:32:31 +0000 2012
2035,579,Mizumi,4bf58dd8d48988d1d2941735,Sushi Restaurant,40.76379699,-73.748958,-240,Wed Apr 04 17:33:57 +0000 2012
2036,1071,Southwest Porch at Bryant Park,4bf58dd8d48988d121941735,Bar,40.754018027698336,-73.98453241079356,-240,Wed Apr 04 17:34:22 +0000 2012
2037,276,Desi Shack,4bf58dd8d48988d10f941735,Indian Restaurant,40.74937024193277,-73.97742748260498,-240,Wed Apr 04 17:34:29 +0000 2012
2043,492,Hooters,4bf58dd8d48988d14c941735,Wings Joint,40.76526318064232,-73.9815824906134,-240,Wed Apr 04 17:40:45 +0000 2012
2055,238,SEMINAR at The John Golden Theatre,4bf58dd8d48988d137941735,Theater,40.75908711345461,-73.98767741198104,-240,Wed Apr 04 17:49:24 +0000 2012
2063,503,Shobu Sushi & Grill,4bf58dd8d48988d1d2941735,Sushi Restaurant,40.61574418445948,-74.03079271316528,-240,Wed Apr 04 17:53:53 +0000 2012
2065,503,Hunter's Steak & Ale House,4bf58dd8d48988d1cc941735,Steakhouse,40.61641527416032,-74.03104790832438,-240,Wed Apr 04 17:54:30 +0000 2012
2069,691,Torino Pizza,4bf58dd8d48988d1ca941735,Pizza Place,40.909973,-74.07303214073181,-240,Wed Apr 04 17:55:04 +0000 2012
2072,503,Metropolitan City Market,4bf58dd8d48988d118951735,Food & Drink Shop,40.61732366832235,-74.030835613138,-240,Wed Apr 04 17:55:32 +0000 2012
2080,967,Sweetwolf's,4bf58dd8d48988d157941735,American Restaurant,40.66621493941077,-73.98556530475616,-240,Wed Apr 04 17:57:40 +0000 2012
2082,273,Goodburger,4bf58dd8d48988d16c941735,Burger Joint,40.767149660759394,-73.98252945436204,-240,Wed Apr 04 17:59:19 +0000 2012
2103,84,Kinneys park,4c38df4de52ce0d596b336e1,Parking,40.75323066574951,-73.9735646772875,-240,Wed Apr 04 18:12:30 +0000 2012
2104,912,Van Diemens,4bf58dd8d48988d116941735,Bar,40.741553,-73.981094,-240,Wed Apr 04 18:12:52 +0000 2012
2106,354,Quality Burger,4bf58dd8d48988d16c941735,Burger Joint,40.71327782289451,-74.01590550455757,-240,Wed Apr 04 18:13:33 +0000 2012
2114,293,Father Fagan Park,4bf58dd8d48988d163941735,Park,40.72678506374359,-74.00346747445712,-240,Wed Apr 04 18:16:52 +0000 2012
2120,315,New Ming Fat,4bf58dd8d48988d145941735,Chinese Restaurant,40.67284025644557,-73.8707270170631,-240,Wed Apr 04 18:20:40 +0000 2012
2122,315,May May Restaurant,4bf58dd8d48988d145941735,Chinese Restaurant,40.67284344395805,-73.87066384993089,-240,Wed Apr 04 18:21:48 +0000 2012
2123,315,Napoli's Pizza,4bf58dd8d48988d1ca941735,Pizza Place,40.672841077323234,-73.87062939512292,-240,Wed Apr 04 18:22:08 +0000 2012
2124,604,Pizza Hut,4bf58dd8d48988d16e941735,Fast Food Restaurant,40.91600623384611,-74.17317470845252,-240,Wed Apr 04 18:22:25 +0000 2012
2136,516,Salsarita's Fresh Cantina,4bf58dd8d48988d151941735,Taco Place,40.71667368997333,-74.03551752769187,-240,Wed Apr 04 18:29:09 +0000 2012
2143,424,Cody's American Bar & Grill,4bf58dd8d48988d14e941735,American Restaurant,40.688614,-73.992894,-240,Wed Apr 04 18:31:58 +0000 2012
2175,272,Sly Fox Inn,4bf58dd8d48988d116941735,Bar,40.726395,-73.790404,-240,Wed Apr 04 18:49:00 +0000 2012
2180,527,Mangia,4bf58dd8d48988d1c5941735,Sandwich Place,40.74203143584153,-73.99019681919303,-240,Wed Apr 04 18:49:52 +0000 2012
2184,374,Panaderia El Carretero,4bf58dd8d48988d1cd941735,South American Restaurant,40.77351783616502,-74.0279552604677,-240,Wed Apr 04 18:53:27 +0000 2012
2203,768,James J Braddock North Hudson County Park,4bf58dd8d48988d163941735,Park,40.80122721477755,-74.0003028102289,-240,Wed Apr 04 19:03:17 +0000 2012
2209,854,Sapporo Sushi,4bf58dd8d48988d111941735,Japanese Restaurant,40.60789273511395,-74.16350841522217,-240,Wed Apr 04 19:05:42 +0000 2012
2210,987,Glaze Teriyaki Grill,4bf58dd8d48988d111941735,Japanese Restaurant,40.75911759196612,-73.97041370572528,-240,Wed Apr 04 19:05:47 +0000 2012
2215,52,Beecher's Handmade Cheese,4bf58dd8d48988d11e951735,Food & Drink Shop,40.73898201597659,-73.989677131176,-240,Wed Apr 04 19:08:51 +0000 2012
2217,908,HK Catwalk,4bf58dd8d48988d165941735,Scenic Lookout,40.761190420012426,-73.99102896237186,-240,Wed Apr 04 19:09:28 +0000 2012
2222,55,Washington Square Dog Run,4bf58dd8d48988d1e5941735,Other Great Outdoors,40.730814559682265,-73.9981049029518,-240,Wed Apr 04 19:11:38 +0000 2012
2232,706,Botulli's Catering Food Truck,4bf58dd8d48988d1cb941735,Food Truck,40.67342076945401,-73.73306214809418,-240,Wed Apr 04 19:16:20 +0000 2012
2234,706,Vapors Barber Shop,4bf58dd8d48988d110951735,Salon / Barbershop,40.67467387583241,-73.73529057814937,-240,Wed Apr 04 19:17:44 +0000 2012
2241,528,Captain Fried Chicken,4d4ae6fc7a7b7dea34424761,Fried Chicken Joint,40.71172911761328,-73.99889684111724,-240,Wed Apr 04 19:21:46 +0000 2012
2247,407,Prime Tavern,4bf58dd8d48988d116941735,Bar,40.76869550177145,-73.86163115501404,-240,Wed Apr 04 19:23:10 +0000 2012
2250,940,Bonhams,4bf58dd8d48988d1e2931735,Art Gallery,40.762026,-73.97303828,-240,Wed Apr 04 19:26:04 +0000 2012
2253,231,Tompkins Square Park,4bf58dd8d48988d163941735,Park,40.72651075083395,-73.98171901702881,-240,Wed Apr 04 19:27:34 +0000 2012
2255,221,Sheridan Market,4bf58dd8d48988d14e941735,American Restaurant,40.826414405525696,-73.92124270636728,-240,Wed Apr 04 19:28:04 +0000 2012
2257,752,Shannon Rose,4bf58dd8d48988d11b941735,Bar,40.82530613438675,-74.1381025314331,-240,Wed Apr 04 19:31:58 +0000 2012
2263,559,Trailer Park Lounge,4bf58dd8d48988d116941735,Bar,40.74514799387085,-73.99811064164594,-240,Wed Apr 04 19:35:32 +0000 2012
2265,182,Caffè Storico,4bf58dd8d48988d110941735,Italian Restaurant,40.77943802033173,-73.9740200196214,-240,Wed Apr 04 19:36:58 +0000 2012
2268,383,Military Park,4bf58dd8d48988d163941735,Park,40.73912451542909,-74.16951678402297,-240,Wed Apr 04 19:39:05 +0000 2012
2294,666,Nederlander Theater,4bf58dd8d48988d137941735,Theater,40.75557964275588,-73.9885425567627,-240,Wed Apr 04 21:26:07 +0000 2012
2295,246,Saint Thomas Church,4bf58dd8d48988d132941735,Church,40.760740156333405,-73.97603273391724,-240,Wed Apr 04 21:27:28 +0000 2012
2296,894,CTown Supermarkets,4bf58dd8d48988d118951735,Food & Drink Shop,40.66394231631882,-73.9216560565219,-240,Wed Apr 04 21:27:50 +0000 2012
2297,229,Black Rabbit,4bf58dd8d48988d116941735,Bar,40.730029,-73.956604,-240,Wed Apr 04 21:29:35 +0000 2012
2303,621,Traffic On Willow,4bf58dd8d48988d162941735,Other Great Outdoors,40.75994179620037,-74.02787493128294,-240,Wed Apr 04 21:32:01 +0000 2012
2304,155,Mermaid Oyster Bar,4bf58dd8d48988d1ce941735,Seafood Restaurant,40.72871788682232,-74.00150217980284,-240,Wed Apr 04 21:32:29 +0000 2012
2305,457,5th & Mad,4bf58dd8d48988d121941735,Bar,40.749522986346776,-73.98322963061759,-240,Wed Apr 04 21:33:35 +0000 2012
2309,937,Hot Bird,4bf58dd8d48988d117941735,Beer Garden,40.68183918319127,-73.96677481467539,-240,Wed Apr 04 21:34:54 +0000 2012
2317,65,Churrascaria Plataforma,4bf58dd8d48988d16b941735,Brazilian Restaurant,40.76214677512365,-73.98757984884986,-240,Wed Apr 04 21:38:09 +0000 2012
2321,874,New Hope Lutheran Church,4bf58dd8d48988d132941735,Church,40.68391184958774,-73.72211944639469,-240,Wed Apr 04 21:40:14 +0000 2012
2324,153,High Line 10th Ave Amphitheatre,4bf58dd8d48988d165941735,Scenic Lookout,40.743832,-74.006813,-240,Wed Apr 04 21:42:05 +0000 2012
2337,639,Yuka Japanese Restaurant,4bf58dd8d48988d1d2941735,Sushi Restaurant,40.774599,-73.954345,-240,Wed Apr 04 22:46:42 +0000 2012
2341,117,Shanghai 21,4bf58dd8d48988d145941735,Chinese Restaurant,40.71448721403073,-73.99883945440368,-240,Wed Apr 04 22:47:55 +0000 2012
2349,564,Arno Ristorante,4bf58dd8d48988d110941735,Italian Restaurant,40.75329384823084,-73.98823983377046,-240,Wed Apr 04 22:50:02 +0000 2012
2355,1042,Brass Monkey,4bf58dd8d48988d116941735,Bar,40.740727951827786,-74.00861104297583,-240,Wed Apr 04 22:51:46 +0000 2012
2361,166,Cafe Gitane,4bf58dd8d48988d10c941735,French Restaurant,40.723185,-73.995017,-240,Wed Apr 04 22:53:50 +0000 2012
2362,1019,The Islands,4bf58dd8d48988d144941735,Caribbean Restaurant,40.67228503425416,-73.96278703096871,-240,Wed Apr 04 22:54:02 +0000 2012
2364,315,Visions Of Beauty Unisex Salon,4bf58dd8d48988d110951735,Salon / Barbershop,40.67414892154103,-73.87085335126653,-240,Wed Apr 04 22:54:25 +0000 2012
2367,315,Espinal Restaurant,4bf58dd8d48988d1be941735,Latin American Restaurant,40.67437280846492,-73.87091159820557,-240,Wed Apr 04 22:55:08 +0000 2012
2372,526,Bleecker Street Bar,4bf58dd8d48988d116941735,Bar,40.72613839512974,-73.994965811503,-240,Wed Apr 04 22:57:55 +0000 2012
2373,925,Uncle Nick's Greek Cuisine,4bf58dd8d48988d10e941735,Greek Restaurant,40.749064881592005,-73.99558559962855,-240,Wed Apr 04 22:58:18 +0000 2012
2374,1001,Yogo Truck,4bf58dd8d48988d1cb941735,Food Truck,40.734487719356174,-73.99039194274509,-240,Wed Apr 04 22:58:58 +0000 2012
2376,173,King of Falafel & Shawarma,4bf58dd8d48988d115941735,Middle Eastern Restaurant,40.76238399889245,-73.92639803844115,-240,Wed Apr 04 22:59:26 +0000 2012
2379,693,John Jay Park,4bf58dd8d48988d163941735,Park,40.76949755926977,-73.9496182977854,-240,Wed Apr 04 23:00:57 +0000 2012
2382,188,10th and Willow,4bf58dd8d48988d116941735,Bar,40.749156005568246,-74.03103643291495,-240,Wed Apr 04 23:01:47 +0000 2012
2384,1083,Tenpenny,4bf58dd8d48988d14e941735,American Restaurant,40.755781,-73.978061,-240,Wed Apr 04 23:02:11 +0000 2012
2392,534,The Whiskey Shop,4bf58dd8d48988d186941735,Food & Drink Shop,40.7213069243792,-73.95722508430481,-240,Wed Apr 04 23:05:09 +0000 2012
2393,414,High Line Ball Room,4bf58dd8d48988d1e5931735,Music Venue,40.74303711661063,-74.00573147570121,-240,Wed Apr 04 23:05:13 +0000 2012
2395,1054,Garden State Plaza Food Court,4bf58dd8d48988d120951735,Food & Drink Shop,40.91637850483696,-74.07649656441112,-240,Wed Apr 04 23:06:29 +0000 2012
2398,445,Associated Supermarkets,4bf58dd8d48988d118951735,Food & Drink Shop,40.82920253276825,-73.87613117694855,-240,Wed Apr 04 23:06:46 +0000 2012
2399,153,Esca,4bf58dd8d48988d1ce941735,Seafood Restaurant,40.75919961464184,-73.99248090010224,-240,Wed Apr 04 23:07:17 +0000 2012
2405,533,Fitzgerald's 1928,4bf58dd8d48988d155941735,Gastropub,40.80202685,-74.20413768333333,-240,Wed Apr 04 23:15:28 +0000 2012
2407,1054,Villa Fresh Italian Kitchen,4bf58dd8d48988d1ca941735,Pizza Place,40.916489477111625,-74.07642772844432,-240,Wed Apr 04 23:16:12 +0000 2012
2411,906,Upstate Craft Beer & Oyster Bar,4bf58dd8d48988d1ce941735,Seafood Restaurant,40.726187,-73.986112,-240,Wed Apr 04 23:17:39 +0000 2012
2413,1060,Grand Central Oyster Bar,4bf58dd8d48988d1ce941735,Seafood Restaurant,40.75250498676928,-73.97758003761531,-240,Wed Apr 04 23:18:43 +0000 2012
2416,166,Public,4bf58dd8d48988d14e941735,American Restaurant,40.72222,-73.994267,-240,Wed Apr 04 23:19:11 +0000 2012
2420,182,Little Red Lighthouse,4bf58dd8d48988d15d941735,Other Great Outdoors,40.85023766062983,-73.94696831703186,-240,Wed Apr 04 23:20:10 +0000 2012
2423,1002,Parish of Calvary/St George's,4bf58dd8d48988d132941735,Church,40.73906330729812,-73.98695468902588,-240,Wed Apr 04 23:21:24 +0000 2012
2424,999,Giorgione,4bf58dd8d48988d110941735,Italian Restaurant,40.72588735248248,-74.00848591936901,-240,Wed Apr 04 23:21:55 +0000 2012
2431,26,Locker School of Dance,4bf58dd8d48988d134941735,Performing Arts Venue,40.87300251054165,-74.10425261952146,-240,Wed Apr 04 23:22:53 +0000 2012
2433,894,Igloo Ice Cream Cafe,4bf58dd8d48988d147941735,Diner,40.77578734036782,-73.91176985788714,-240,Wed Apr 04 23:23:20 +0000 2012
2436,535,Terminal 5,5032792091d4c4b30a586d5c,Concert Hall,40.76944422698758,-73.99295148625718,-240,Wed Apr 04 23:24:01 +0000 2012
2443,433,Kinky Boots at the Al Hirschfeld Theatre,4bf58dd8d48988d137941735,Theater,40.75933222917979,-73.98917824029922,-240,Wed Apr 04 23:28:51 +0000 2012
2444,171,PDT (Please Don't Tell),4bf58dd8d48988d1d4941735,Bar,40.72706798318144,-73.98388196338429,-240,Wed Apr 04 23:28:56 +0000 2012
2446,616,Jerry's Pizzeria,4bf58dd8d48988d1ca941735,Pizza Place,40.835945965202576,-73.85581326762136,-240,Wed Apr 04 23:29:44 +0000 2012
2447,515,Pieces,4bf58dd8d48988d1d8941735,Bar,40.73395479525328,-74.0001765603631,-240,Wed Apr 04 23:29:56 +0000 2012
2452,870,Cathedral Basilica of the Sacred Heart,4bf58dd8d48988d132941735,Church,40.75483194457171,-74.17844295501709,-240,Wed Apr 04 23:31:16 +0000 2012
2454,1,Ocean Grill,4bf58dd8d48988d1ce941735,Seafood Restaurant,40.781558,-73.975792,-240,Wed Apr 04 23:31:31 +0000 2012
2459,417,Cafe de la Esquina,4bf58dd8d48988d151941735,Taco Place,40.71702583614482,-73.96295218319894,-240,Wed Apr 04 23:32:43 +0000 2012
2461,405,East River Promenade,4bf58dd8d48988d162941735,Other Great Outdoors,40.77491934703723,-73.94288063049316,-240,Wed Apr 04 23:32:48 +0000 2012
2464,21,Mr Chow,4bf58dd8d48988d145941735,Chinese Restaurant,40.7199434551993,-74.00856625671392,-240,Wed Apr 04 23:33:10 +0000 2012
2468,894,Immaculate Conception Church,4bf58dd8d48988d132941735,Church,40.77680426086423,-73.9108657836914,-240,Wed Apr 04 23:33:58 +0000 2012
2474,1054,AMC Garden State Plaza 16,4bf58dd8d48988d180941735,Movie Theater,40.91532869189857,-74.07670140266418,-240,Wed Apr 04 23:36:09 +0000 2012
2486,868,Mamoun's Falafel,4bf58dd8d48988d10b941735,Falafel Restaurant,40.730178,-74.0003224,-240,Wed Apr 04 23:38:42 +0000 2012
2487,23,Calista Superfoods,4bf58dd8d48988d16c941735,Burger Joint,40.777253,-73.957371,-240,Wed Apr 04 23:38:53 +0000 2012
2489,933,Blaue Gans,4bf58dd8d48988d10d941735,German Restaurant,40.71632701972756,-74.007783,-240,Wed Apr 04 23:41:02 +0000 2012
2491,536,Manolo Tapas,4bf58dd8d48988d1db931735,Tapas Restaurant,40.84628122364842,-73.93798828125,-240,Wed Apr 04 23:41:22 +0000 2012
2492,599,Sensation Neo Shanghai Cuisine,4bf58dd8d48988d145941735,Chinese Restaurant,40.71396837819854,-73.96027170421894,-240,Wed Apr 04 23:41:27 +0000 2012
2496,1040,The Richardson,4bf58dd8d48988d11e941735,Bar,40.718862,-73.945087,-240,Wed Apr 04 23:44:07 +0000 2012
2497,573,Circle Pizza,4bf58dd8d48988d1ca941735,Pizza Place,40.83261031647883,-73.86104498129052,-240,Wed Apr 04 23:44:23 +0000 2012
2499,800,Irish Repertory Theatre,4bf58dd8d48988d137941735,Theater,40.738461174451054,-73.99175780205297,-240,Wed Apr 04 23:44:26 +0000 2012
2500,301,Coffee Shop,4bf58dd8d48988d147941735,Diner,40.73653170754329,-73.9908281005557,-240,Wed Apr 04 23:44:26 +0000 2012
2501,473,Rattlestick Playwrights Theater,4bf58dd8d48988d135941735,Theater,40.736055,-74.001797,-240,Wed Apr 04 23:44:48 +0000 2012
2502,323,Vero Midtown,4bf58dd8d48988d123941735,Bar,40.756773,-73.967124,-240,Wed Apr 04 23:46:06 +0000 2012
2505,15,Barolo,4bf58dd8d48988d110941735,Italian Restaurant,40.72443788290763,-74.00274171175509,-240,Wed Apr 04 23:48:15 +0000 2012
2511,943,Groove On Grove,4bf58dd8d48988d1e5931735,Music Venue,40.71990832665325,-74.04295921325684,-240,Wed Apr 04 23:52:24 +0000 2012
2514,78,Ennju,4bf58dd8d48988d1d2941735,Sushi Restaurant,40.73753052988333,-73.99120112947547,-240,Wed Apr 04 23:53:56 +0000 2012
2516,518,Veselka,4bf58dd8d48988d109941735,Eastern European Restaurant,40.72915518010633,-73.98702890317843,-240,Wed Apr 04 23:54:21 +0000 2012
2517,273,Walter Kerr Theatre,4bf58dd8d48988d137941735,Theater,40.76060088532793,-73.98582370401029,-240,Wed Apr 04 23:54:34 +0000 2012
2518,566,The Blind Tiger,4bf58dd8d48988d155941735,Gastropub,40.73183947931137,-74.00335573618469,-240,Wed Apr 04 23:54:38 +0000 2012
2523,210,Cafetasia,4bf58dd8d48988d149941735,Thai Restaurant,40.73136898702117,-73.99431158852991,-240,Wed Apr 04 23:56:48 +0000 2012
2524,612,Alpha Fusion,4bf58dd8d48988d142941735,Asian Restaurant,40.742565,-74.000508,-240,Wed Apr 04 23:57:13 +0000 2012
2525,1055,Whole Foods,4bf58dd8d48988d118951735,Food & Drink Shop,40.73485228613973,-73.99108529090881,-240,Wed Apr 04 23:57:37 +0000 2012
2527,340,Joy Burger Bar,4bf58dd8d48988d16c941735,Burger Joint,40.732252545109446,-74.00045775313227,-240,Wed Apr 04 23:58:03 +0000 2012
2529,543,3 Forty Grill,4bf58dd8d48988d116941735,Bar,40.74026640724124,-74.02690887451172,-240,Wed Apr 04 23:58:27 +0000 2012
2530,465,Taïm Falafel and Smoothie Bar,4bf58dd8d48988d115941735,Middle Eastern Restaurant,40.73600396017387,-74.0017489391183,-240,Wed Apr 04 23:58:39 +0000 2012
2532,420,AMC Clifton Commons 16,4bf58dd8d48988d17f941735,Movie Theater,40.828585959081536,-74.14026975631714,-240,Wed Apr 04 23:58:49 +0000 2012
2533,389,Social Eatz,4bf58dd8d48988d142941735,Asian Restaurant,40.75708725019393,-73.96814084177105,-240,Wed Apr 04 23:58:51 +0000 2012
2534,514,Turntable Chicken Jazz,4bf58dd8d48988d113941735,Korean Restaurant,40.74717522622311,-73.98559414140632,-240,Wed Apr 04 23:59:38 +0000 2012
2538,202,Booth Theatre,4bf58dd8d48988d137941735,Theater,40.75848896978809,-73.9866994,-240,Thu Apr 05 00:00:38 +0000 2012
2551,186,Lunt-Fontanne Theatre,4bf58dd8d48988d137941735,Theater,40.75909046091092,-73.98592472076416,-240,Thu Apr 05 00:03:41 +0000 2012
2553,115,Song,4bf58dd8d48988d149941735,Thai Restaurant,40.67347806336401,-73.98262702005884,-240,Thu Apr 05 00:05:06 +0000 2012
2554,90,Amber Kips Bay,4bf58dd8d48988d1d2941735,Sushi Restaurant,40.741477,-73.981116,-240,Thu Apr 05 00:05:51 +0000 2012
2555,327,Sky Room,4bf58dd8d48988d121941735,Bar,40.75656797846801,-73.99236038395,-240,Thu Apr 05 00:07:14 +0000 2012
2557,948,Lexington Brass,4bf58dd8d48988d14e941735,American Restaurant,40.755349,-73.973651,-240,Thu Apr 05 00:08:31 +0000 2012
2558,339,Lantern's Keep,4bf58dd8d48988d11e941735,Bar,40.75574572116775,-73.98228840948696,-240,Thu Apr 05 00:08:43 +0000 2012
2559,312,Abe & Arthur's,4bf58dd8d48988d14e941735,American Restaurant,40.74131915864618,-74.00611595251165,-240,Thu Apr 05 00:08:46 +0000 2012
2561,802,Lounge 18,4bf58dd8d48988d116941735,Bar,40.61429110761208,-73.99510928115475,-240,Thu Apr 05 00:09:34 +0000 2012
2563,769,Fine Fare,4bf58dd8d48988d118951735,Food & Drink Shop,40.79812658979423,-73.93372893751474,-240,Thu Apr 05 00:09:57 +0000 2012
2575,565,Lombardi's,4bf58dd8d48988d1ca941735,Pizza Place,40.72156712536507,-73.99559140205383,-240,Thu Apr 05 00:16:29 +0000 2012
2578,215,Rio Lounge,4bf58dd8d48988d121941735,Bar,40.7307861218936,-74.15103112410763,-240,Thu Apr 05 00:17:53 +0000 2012
2581,628,QuickChek,4bf58dd8d48988d1f9941735,Food & Drink Shop,40.80547929368668,-74.19283338241432,-240,Thu Apr 05 00:18:46 +0000 2012
2592,601,40/40 Club,4bf58dd8d48988d11d941735,Bar,40.74311402567613,-73.98917528677009,-240,Thu Apr 05 00:23:00 +0000 2012
2599,470,Jahlookova Natural Organic Health Mart,4bf58dd8d48988d1d3941735,Vegetarian / Vegan Restaurant,40.80610390415262,-73.94042237465858,-240,Thu Apr 05 08:13:24 +0000 2012
2604,470,Good Health Tall Grass Burger & Grill,4bf58dd8d48988d1d3941735,Vegetarian / Vegan Restaurant,40.78027753212569,-73.94686301087354,-240,Thu Apr 05 08:39:10 +0000 2012
2605,470,Peacefood Cafe,4bf58dd8d48988d1d3941735,Vegetarian / Vegan Restaurant,40.78516004328281,-73.97691647383785,-240,Thu Apr 05 08:39:51 +0000 2012
2609,333,Battery Parking Garage,4c38df4de52ce0d596b336e1,Parking,40.707470711677146,-74.0144996501386,-240,Thu Apr 05 08:49:12 +0000 2012
2611,470,Cafe Veg,4bf58dd8d48988d1d3941735,Vegetarian / Vegan Restaurant,40.814885,-73.943709,-240,Thu Apr 05 08:52:23 +0000 2012
2612,470,Ital Shak Vegetarian Restaurant,4bf58dd8d48988d1d3941735,Vegetarian / Vegan Restaurant,40.6719052268743,-73.95019805107333,-240,Thu Apr 05 08:53:48 +0000 2012
2614,470,9 Ave Vegetarian World,4bf58dd8d48988d1d3941735,Vegetarian / Vegan Restaurant,40.75697202128999,-73.99579219522506,-240,Thu Apr 05 08:54:15 +0000 2012
2615,470,Circa NY,4bf58dd8d48988d1d3941735,Vegetarian / Vegan Restaurant,40.748506877985214,-73.98642630453998,-240,Thu Apr 05 08:55:10 +0000 2012
2616,470,Gobo,4bf58dd8d48988d1d3941735,Vegetarian / Vegan Restaurant,40.775515827922,-73.95638006460952,-240,Thu Apr 05 08:55:35 +0000 2012
2620,470,Strictly Roots,4bf58dd8d48988d1d3941735,Vegetarian / Vegan Restaurant,40.807596,-73.949353,-240,Thu Apr 05 09:02:47 +0000 2012
2621,470,The Green Bean Cafe,4bf58dd8d48988d1d3941735,Vegetarian / Vegan Restaurant,40.76913932,-73.95215922857142,-240,Thu Apr 05 09:03:15 +0000 2012
2638,983,Sutton Theater,4bf58dd8d48988d17f941735,Movie Theater,40.76104083532429,-73.96914482116699,-240,Thu Apr 05 10:01:41 +0000 2012
2662,976,Trade Wise,4bf58dd8d48988d118951735,Food & Drink Shop,40.69285984567888,-73.928189168556,-240,Thu Apr 05 10:32:47 +0000 2012
2681,936,Sunshine Deli & Grocery,4bf58dd8d48988d118951735,Food & Drink Shop,40.67003926666667,-73.944317,-240,Thu Apr 05 11:00:24 +0000 2012
2700,819,Latveria,4bf58dd8d48988d162941735,Other Great Outdoors,40.63355855667462,-73.92037007537644,-240,Thu Apr 05 11:41:34 +0000 2012
2722,427,Vitality & Health Natural Market,4bf58dd8d48988d118951735,Food & Drink Shop,40.75664218293871,-73.91412950145927,-240,Thu Apr 05 11:49:04 +0000 2012
2827,372,Warehouse Wine & Spirits,4bf58dd8d48988d186941735,Food & Drink Shop,40.73004029,-73.992856,-240,Fri Apr 06 13:19:28 +0000 2012
2849,540,The I Can Club,4bf58dd8d48988d11f941735,Bar,40.70188518471335,-73.76582451883537,-240,Fri Apr 06 13:28:38 +0000 2012
2860,342,Rockefeller Plaza,4bf58dd8d48988d164941735,Plaza,40.7587486226439,-73.97859808949039,-240,Fri Apr 06 13:32:20 +0000 2012
2864,372,East Village Cheese,4bf58dd8d48988d11e951735,Food & Drink Shop,40.73037922382355,-73.989322,-240,Fri Apr 06 13:34:21 +0000 2012
2873,24,Straus Park,4bf58dd8d48988d163941735,Park,40.80145843059635,-73.9674635690433,-240,Fri Apr 06 13:38:17 +0000 2012
2880,673,Boro Park Food Mart,4bf58dd8d48988d1c4941735,Restaurant,40.637357,-73.99001,-240,Fri Apr 06 13:40:44 +0000 2012
2902,372,East Village Meat Market,4bf58dd8d48988d109941735,Eastern European Restaurant,40.72900250810483,-73.98725272504815,-240,Fri Apr 06 13:53:06 +0000 2012
2913,240,Joyce Theater,4bf58dd8d48988d137941735,Theater,40.742788354778206,-74.00067582070984,-240,Fri Apr 06 13:59:35 +0000 2012
2916,372,New Yorkers Foodmarket,4bf58dd8d48988d118951735,Food & Drink Shop,40.7278211723631,-73.98833739656621,-240,Fri Apr 06 14:00:46 +0000 2012
2921,338,Barclays Center,4bf58dd8d48988d18b941735,Stadium,40.68312,-73.975979,-240,Fri Apr 06 14:02:04 +0000 2012
2927,173,Jackson House Restaurant,4bf58dd8d48988d147941735,Diner,40.749776,-73.883692,-240,Fri Apr 06 14:03:37 +0000 2012
2936,478,Yonkers Pier,4bf58dd8d48988d165941735,Scenic Lookout,40.935628099674034,-73.90311184538089,-240,Fri Apr 06 14:08:51 +0000 2012
2940,526,Barfly,4bf58dd8d48988d116941735,Bar,40.73698799811338,-73.98458,-240,Fri Apr 06 14:11:47 +0000 2012
2942,280,Europa Cafe,4bf58dd8d48988d14e941735,American Restaurant,40.74838487956845,-73.98577205244833,-240,Fri Apr 06 14:13:04 +0000 2012
2947,516,Salt & Pepper Restaura,4bf58dd8d48988d10f941735,Indian Restaurant,40.74998977927698,-73.99020829705454,-240,Fri Apr 06 14:16:30 +0000 2012
2958,448,Village Fried Chicken II,4bf58dd8d48988d14e941735,American Restaurant,40.78139497312454,-74.02042899936573,-240,Fri Apr 06 14:27:11 +0000 2012
2967,439,Poppenhuesen Triangle Park,4bf58dd8d48988d163941735,Park,40.788886032710174,-73.84657272234311,-240,Fri Apr 06 14:32:13 +0000 2012
3006,412,Othello's Deli,4bf58dd8d48988d1c5941735,Sandwich Place,40.77405405618532,-73.91775369644165,-240,Fri Apr 06 14:51:49 +0000 2012
3031,306,Omega Diner Restaurant,4bf58dd8d48988d147941735,Diner,40.74372519836779,-73.69454026222229,-240,Fri Apr 06 15:09:58 +0000 2012
3037,516,Stout,4bf58dd8d48988d11d941735,Bar,40.74985920636586,-73.98996152288103,-240,Fri Apr 06 15:12:12 +0000 2012
3050,301,AMC Magic Johnson Harlem 9,4bf58dd8d48988d17f941735,Movie Theater,40.809391811146064,-73.95174264907835,-240,Fri Apr 06 15:25:31 +0000 2012
3051,184,Los Tres Maria's Cafe,4bf58dd8d48988d1c1941735,Mexican Restaurant,40.700447,-73.925524,-240,Fri Apr 06 15:26:19 +0000 2012
3052,1032,Chit Chat Diner,4bf58dd8d48988d147941735,Diner,40.88668759769263,-74.06419747370123,-240,Fri Apr 06 15:27:53 +0000 2012
3059,75,Bull Moose Dog Run,4bf58dd8d48988d163941735,Park,40.78224746176124,-73.97384405136108,-240,Fri Apr 06 15:33:06 +0000 2012
3060,528,Frank & Thomas Pizza,4bf58dd8d48988d1ca941735,Pizza Place,40.71254060501415,-73.9897434431147,-240,Fri Apr 06 15:33:58 +0000 2012
3061,528,Crown Fried Chicken,4bf58dd8d48988d14f941735,Southern / Soul Food Restaurant,40.712746,-73.990284,-240,Fri Apr 06 15:34:25 +0000 2012
3063,495,Columbia Park Liquors,4bf58dd8d48988d186941735,Food & Drink Shop,40.77553805134212,-74.03554621553876,-240,Fri Apr 06 15:35:32 +0000 2012
3075,14,Barber Bart,4bf58dd8d48988d110951735,Salon / Barbershop,40.73991469094372,-73.98923267637623,-240,Fri Apr 06 15:45:10 +0000 2012
3076,581,Tortilleria Nixtamal,4bf58dd8d48988d151941735,Taco Place,40.74598896309129,-73.85919570922852,-240,Fri Apr 06 15:45:30 +0000 2012
3078,643,Rock Spring Way,4eb1d4d54b900d56c88a45fc,Other Great Outdoors,40.77198791503906,-74.26263427734375,-240,Fri Apr 06 15:46:24 +0000 2012
3090,241,Grissini Restaurant,4bf58dd8d48988d110941735,Italian Restaurant,40.879601,-73.951838,-240,Fri Apr 06 15:54:47 +0000 2012
3091,643,Eagle Rock Diner & Restaurant,4bf58dd8d48988d147941735,Diner,40.802311,-74.245219,-240,Fri Apr 06 15:58:13 +0000 2012
3097,865,Bodies The Exhibition,4bf58dd8d48988d191941735,Science Museum,40.70675031196978,-74.00343418121338,-240,Fri Apr 06 16:07:03 +0000 2012
3105,565,The Museum of Public Relations,4bf58dd8d48988d190941735,History Museum,40.70675424948401,-74.01261751047264,-240,Fri Apr 06 16:09:05 +0000 2012
3106,826,Redwood,4bf58dd8d48988d14e941735,American Restaurant,40.74048588934338,-74.00188386440277,-240,Fri Apr 06 16:09:57 +0000 2012
3107,296,Baja Fresh,4bf58dd8d48988d153941735,Burrito Place,40.754913216520784,-73.98669719696045,-240,Fri Apr 06 16:11:24 +0000 2012
3108,228,Union Baptist Church,4bf58dd8d48988d132941735,Church,40.82215,-73.94077827993584,-240,Fri Apr 06 16:11:49 +0000 2012
3109,518,Almond,4bf58dd8d48988d10c941735,French Restaurant,40.74033689217464,-73.9886817354489,-240,Fri Apr 06 16:12:26 +0000 2012
3110,145,Food Depot Gourmet Deli,4bf58dd8d48988d1c4941735,Restaurant,40.7389100052285,-73.99141346869047,-240,Fri Apr 06 16:12:50 +0000 2012
3112,799,Dino's Pizza & Pasta,4bf58dd8d48988d1ca941735,Pizza Place,40.76243537509867,-73.92511782954827,-240,Fri Apr 06 16:13:34 +0000 2012
3117,557,Lucianos,4bf58dd8d48988d1ca941735,Pizza Place,40.694096401575074,-73.98551953350095,-240,Fri Apr 06 16:16:16 +0000 2012
3126,293,Associated Supermarket,4bf58dd8d48988d118951735,Food & Drink Shop,40.690652,-73.92427,-240,Fri Apr 06 16:20:37 +0000 2012
3130,941,Chick-Fil-A,4bf58dd8d48988d16e941735,Fast Food Restaurant,40.95634015658138,-74.06896591186523,-240,Fri Apr 06 16:23:21 +0000 2012
3134,388,Bar Suzette Creperie,4bf58dd8d48988d10c941735,French Restaurant,40.74234739360883,-74.00630950927734,-240,Fri Apr 06 16:24:13 +0000 2012
3143,541,Bourbon Street Grill,4bf58dd8d48988d120951735,Food & Drink Shop,40.916563,-74.07650879,-240,Fri Apr 06 16:26:41 +0000 2012
3145,116,Dos Toros Taqueria,4bf58dd8d48988d151941735,Taco Place,40.733551530741686,-73.98995876312256,-240,Fri Apr 06 16:27:54 +0000 2012
3148,888,The Smile,4bf58dd8d48988d14e941735,American Restaurant,40.72641318283085,-73.993821144104,-240,Fri Apr 06 16:29:10 +0000 2012
3152,570,Menchanko-Tei,4bf58dd8d48988d1d1941735,Ramen /  Noodle House,40.75332026820911,-73.97426784038544,-240,Fri Apr 06 16:29:48 +0000 2012
3155,995,Roma Pizza,4bf58dd8d48988d1ca941735,Pizza Place,40.6746478,-73.975315,-240,Fri Apr 06 16:30:32 +0000 2012
3172,163,Pic Up Stix,4bf58dd8d48988d142941735,Asian Restaurant,40.7824305880439,-73.9534239732528,-240,Fri Apr 06 16:41:07 +0000 2012
3174,152,Sammy's Noodle Shop & Grill,4bf58dd8d48988d145941735,Chinese Restaurant,40.73510277101194,-73.99836888270403,-240,Fri Apr 06 16:43:13 +0000 2012
3177,349,Health King,4bf58dd8d48988d112941735,Bar,40.753666009424215,-73.98876208109931,-240,Sat Apr 07 00:14:34 +0000 2012
3181,160,Pio Pio,4bf58dd8d48988d1be941735,Latin American Restaurant,40.76040696991703,-73.99489402770996,-240,Sat Apr 07 00:15:51 +0000 2012
3187,903,Grape and Grain,4bf58dd8d48988d123941735,Bar,40.72411,-73.980818,-240,Sat Apr 07 00:17:45 +0000 2012
3188,969,Chelsea Studios,4bf58dd8d48988d134941735,Performing Arts Venue,40.74583423860072,-73.99327860034312,-240,Sat Apr 07 00:17:48 +0000 2012
3190,474,Ishihama Japanese Restaurant,4bf58dd8d48988d1d2941735,Sushi Restaurant,40.747217900313736,-73.98515797170278,-240,Sat Apr 07 00:18:24 +0000 2012
3192,518,Strip House,4bf58dd8d48988d1cc941735,Steakhouse,40.73431559311334,-73.99354258674244,-240,Sat Apr 07 00:20:19 +0000 2012
3195,609,Outback Steakhouse,4bf58dd8d48988d1cc941735,Steakhouse,40.81251919269562,-73.982087,-240,Sat Apr 07 00:22:21 +0000 2012
3197,424,Brooklyn Buschenschank,4bf58dd8d48988d10d941735,German Restaurant,40.6832119765956,-73.99538474258512,-240,Sat Apr 07 00:22:52 +0000 2012
3201,229,Sunac Natural,4bf58dd8d48988d1f5941735,Food & Drink Shop,40.71819072,-73.958401,-240,Sat Apr 07 12:29:06 +0000 2012
3223,228,Joseph Yancey Track And Field,4bf58dd8d48988d163941735,Park,40.827904028690725,-73.92927646636963,-240,Sat Apr 07 12:51:47 +0000 2012
3225,763,Prospect Park Parkside Entrance,4bf58dd8d48988d163941735,Park,40.65558857629375,-73.96247578387509,-240,Sat Apr 07 12:53:48 +0000 2012
3228,1018,Bread & Company,4bf58dd8d48988d14e941735,American Restaurant,40.75323899431278,-73.97914409637451,-240,Sat Apr 07 13:00:58 +0000 2012
3233,880,Zeigfeld Bow Tie Cinema,4bf58dd8d48988d17f941735,Movie Theater,40.76325905651765,-73.97982055170644,-240,Sat Apr 07 13:05:03 +0000 2012
3238,524,Gristedes Supermarkets,4bf58dd8d48988d118951735,Food & Drink Shop,40.788467,-73.976793,-240,Sat Apr 07 13:06:23 +0000 2012
3253,376,Bangz Salon,4bf58dd8d48988d110951735,Salon / Barbershop,40.743782,-74.02872746666667,-240,Sat Apr 07 13:16:02 +0000 2012
3255,347,Memorial Park,4bf58dd8d48988d163941735,Park,40.936052,-74.0375,-240,Sat Apr 07 13:16:26 +0000 2012
3256,603,Salon Sogno,4bf58dd8d48988d110951735,Salon / Barbershop,40.60832376488109,-74.16391841234065,-240,Sat Apr 07 13:16:35 +0000 2012
3270,829,Canarsie Pier,4bf58dd8d48988d163941735,Park,40.631037572804985,-73.88500800897627,-240,Sat Apr 07 13:27:45 +0000 2012
3279,612,The Art of Shaving,4bf58dd8d48988d110951735,Salon / Barbershop,40.760089932355946,-73.97408122508193,-240,Sat Apr 07 13:34:18 +0000 2012
3284,829,Panera Bread,4bf58dd8d48988d1c5941735,Sandwich Place,40.60948916260309,-73.92172336578369,-240,Sat Apr 07 13:36:48 +0000 2012
3285,912,Get Real's Beers n Balls Fest,4bf58dd8d48988d117941735,Beer Garden,40.7542792926831,-73.99929285049438,-240,Sat Apr 07 13:37:01 +0000 2012
3323,464,Zabar's,4bf58dd8d48988d1f9941735,Food & Drink Shop,40.784663301055176,-73.97932123709242,-240,Sat Apr 07 14:08:34 +0000 2012
3333,625,Burger King,4bf58dd8d48988d16c941735,Burger Joint,40.60221556344713,-73.99414516303145,-240,Sat Apr 07 14:12:31 +0000 2012
3335,750,Passoverpocalypse 2012,4bf58dd8d48988d139941735,Synagogue,40.74270961084259,-73.98751671973855,-240,Sat Apr 07 14:13:56 +0000 2012
3342,475,Tiny's Giant Sandwich Shop,4bf58dd8d48988d1c5941735,Sandwich Place,40.719611687500006,-73.98675,-240,Sat Apr 07 14:15:17 +0000 2012
3354,173,Spiros Hair Styles,4bf58dd8d48988d110951735,Salon / Barbershop,40.76485567,-73.91751708,-240,Sat Apr 07 14:22:40 +0000 2012
3359,883,Ridgewood Presbyterian Church,4bf58dd8d48988d132941735,Church,40.70095304544486,-73.89970135559156,-240,Sat Apr 07 14:27:40 +0000 2012
3360,439,Key Food Fresh,4bf58dd8d48988d118951735,Food & Drink Shop,40.78372131819258,-73.84578016316593,-240,Sat Apr 07 14:28:48 +0000 2012
3370,37,Old John's Diner,4bf58dd8d48988d14e941735,American Restaurant,40.775329655001805,-73.98347067431185,-240,Sat Apr 07 14:38:39 +0000 2012
3381,649,Vital Theatre Company,4bf58dd8d48988d137941735,Theater,40.781773295128296,-73.98112909419699,-240,Sat Apr 07 14:47:35 +0000 2012
3387,86,853 7th Av Rehearsal Studios,4bf58dd8d48988d1f2931735,Performing Arts Venue,40.76401298989043,-73.98123813900243,-240,Sat Apr 07 14:57:45 +0000 2012
3389,206,Looking Good,4bf58dd8d48988d110951735,Salon / Barbershop,40.74286390380269,-73.98029116889106,-240,Sat Apr 07 14:58:11 +0000 2012
3396,3,The Frick Collection,4bf58dd8d48988d18f941735,Art Museum,40.77113147017667,-73.96734303720663,-240,Sat Apr 07 15:04:34 +0000 2012
3400,950,Coach House Restaurant,4bf58dd8d48988d147941735,Diner,40.76013133908869,-74.04415237421385,-240,Sat Apr 07 15:09:20 +0000 2012
3407,458,Fresh Creek Park,4bf58dd8d48988d163941735,Park,40.642617864305,-73.88745410578491,-240,Sat Apr 07 15:13:21 +0000 2012
3412,707,Tri-Boro Beverage,4bf58dd8d48988d186941735,Food & Drink Shop,40.76846671888114,-73.90969725198735,-240,Sat Apr 07 15:17:24 +0000 2012
3414,906,Maialino,4bf58dd8d48988d110941735,Italian Restaurant,40.7384071267882,-73.98565727114978,-240,Sat Apr 07 15:19:36 +0000 2012
3415,100,Joan of Arc Island,4bf58dd8d48988d166941735,Sculpture Garden,40.79409970100569,-73.97643436971032,-240,Sat Apr 07 15:22:02 +0000 2012
3421,360,Dunne's Polemost Liquors,4bf58dd8d48988d186941735,Food & Drink Shop,40.725396,-73.951673,-240,Sat Apr 07 15:26:05 +0000 2012
3422,721,Battery Park City Esplanade,4bf58dd8d48988d163941735,Park,40.71046799691372,-74.01798270724399,-240,Sat Apr 07 15:26:23 +0000 2012
3423,360,Lunchbox Brooklyn,4bf58dd8d48988d1c5941735,Sandwich Place,40.72605801337217,-73.94989382431724,-240,Sat Apr 07 15:26:36 +0000 2012
3424,721,Chelsea Piers,4bf58dd8d48988d1e0941735,Harbor / Marina,40.74829382877648,-74.00868102429098,-240,Sat Apr 07 15:28:20 +0000 2012
3433,516,Kraverie,4bf58dd8d48988d113941735,Korean Restaurant,40.718200696564594,-74.04335618019104,-240,Sat Apr 07 15:34:13 +0000 2012
3437,707,Rosario's Deli,4bf58dd8d48988d110941735,Italian Restaurant,40.77497972015404,-73.91201673191188,-240,Sat Apr 07 15:38:50 +0000 2012
3438,927,Grand Army Plaza,4bf58dd8d48988d1fa941735,Food & Drink Shop,40.6724520326176,-73.97003700441346,-240,Sat Apr 07 15:40:01 +0000 2012
3441,1005,Nail Studio Plus,4bf58dd8d48988d110951735,Salon / Barbershop,40.75846893151061,-74.22074980668896,-240,Sat Apr 07 15:47:12 +0000 2012
3446,1030,Brooklyn Botanic Garden,4bf58dd8d48988d15a941735,Garden,40.66760245789949,-73.96317958831787,-240,Sat Apr 07 15:51:26 +0000 2012
3448,949,Frankies (457) Spuntino,4bf58dd8d48988d110941735,Italian Restaurant,40.67735669812327,-73.9980245612159,-240,Sat Apr 07 15:51:41 +0000 2012
3449,578,El Paso Restaurante Mexicano,4bf58dd8d48988d1c1941735,Mexican Restaurant,40.79078254707628,-73.94724760536224,-240,Sat Apr 07 15:52:36 +0000 2012
3453,281,Coimbra Bar & Restaurant,4def73e84765ae376e57713a,Portuguese Restaurant,40.730719291946016,-74.14979256512534,-240,Sat Apr 07 15:57:37 +0000 2012
3460,710,Harry's Burritos,4bf58dd8d48988d153941735,Burrito Place,40.776879066666666,-73.979356,-240,Sat Apr 07 16:00:42 +0000 2012
3462,890,Cooper Dog Park,4bf58dd8d48988d1e5941735,Other Great Outdoors,40.715964,-73.938698,-240,Sat Apr 07 16:01:04 +0000 2012
3463,14,The Food Emporium,4bf58dd8d48988d118951735,Food & Drink Shop,40.73431843737578,-73.9886702574961,-240,Sat Apr 07 16:02:00 +0000 2012
3470,723,Bruce Lee Restaurant,4bf58dd8d48988d145941735,Chinese Restaurant,40.64503,-74.010457,-240,Sat Apr 07 16:05:02 +0000 2012
3472,627,Overpeck Dog Park,4bf58dd8d48988d1e5941735,Other Great Outdoors,40.867016,-73.99748818,-240,Sat Apr 07 16:05:51 +0000 2012
3473,419,TGI Friday's,4bf58dd8d48988d14e941735,American Restaurant,40.64583974483144,-74.2280922125932,-240,Sat Apr 07 16:06:10 +0000 2012
3475,727,Mumbles Restaurant,4bf58dd8d48988d1cc941735,Steakhouse,40.735172,-73.985776,-240,Sat Apr 07 16:07:51 +0000 2012
3479,10,Pier 54 - Hudson River Park,4bf58dd8d48988d162941735,Other Great Outdoors,40.74148072635098,-74.00943275021737,-240,Sat Apr 07 16:10:47 +0000 2012
3483,371,Waldbaum's Super Market,4bf58dd8d48988d118951735,Food & Drink Shop,40.794151296036965,-73.80771060728628,-240,Sat Apr 07 16:11:39 +0000 2012
3498,1038,Donato's Restaurant and Pizza,4bf58dd8d48988d110941735,Italian Restaurant,40.748706260230094,-73.91284347055254,-240,Sat Apr 07 16:19:44 +0000 2012
3500,723,The One and Only Brooklyn,4bf58dd8d48988d165941735,Scenic Lookout,40.64410926419323,-74.01935984573612,-240,Sat Apr 07 16:20:32 +0000 2012
3502,365,Lansky's,4bf58dd8d48988d147941735,Diner,40.77652789768823,-73.9794073259115,-240,Sat Apr 07 16:21:38 +0000 2012
3505,439,Queens Zoo,4bf58dd8d48988d162941735,Other Great Outdoors,40.7439438035854,-73.84954766241772,-240,Sat Apr 07 16:22:45 +0000 2012
3509,307,Palisades Interstate Park - Ross Dock,4bf58dd8d48988d163941735,Park,40.8649812816951,-73.9545949352403,-240,Sat Apr 07 16:23:42 +0000 2012
3511,464,Cafe Con Leche,4bf58dd8d48988d154941735,Cuban Restaurant,40.78401904995116,-73.9775994526167,-240,Sat Apr 07 16:29:03 +0000 2012
3516,331,Blue Smoke,4bf58dd8d48988d1df931735,BBQ Joint,40.75785519418347,-73.84546279907227,-240,Sat Apr 07 16:34:28 +0000 2012
3519,723,Ricos Tacos,4bf58dd8d48988d1c1941735,Mexican Restaurant,40.64440568218871,-74.01076404384204,-240,Sat Apr 07 16:35:35 +0000 2012
3528,536,Citi Field,4bf58dd8d48988d18c941735,Stadium,40.75645736467708,-73.8460636138916,-240,Sat Apr 07 16:40:37 +0000 2012
3530,412,Leo's Latticini,4bf58dd8d48988d110941735,Italian Restaurant,40.74598896309129,-73.86005401611328,-240,Sat Apr 07 16:41:57 +0000 2012
3542,707,Columbus Triangle,4bf58dd8d48988d164941735,Plaza,40.77004254760222,-73.91756270305433,-240,Sat Apr 07 16:46:41 +0000 2012
3546,182,Highbridge Park,4bf58dd8d48988d163941735,Park,40.842464935814256,-73.93464169255496,-240,Sat Apr 07 16:47:55 +0000 2012
3550,648,Queens County Farm Museum,4bf58dd8d48988d181941735,Museum,40.74804135829594,-73.721182723212,-240,Sat Apr 07 16:51:00 +0000 2012
3563,627,Tast Eatery,4bf58dd8d48988d157941735,American Restaurant,40.840057290407934,-73.98122092140568,-240,Sat Apr 07 16:58:37 +0000 2012
3564,81,Strawberry Fields,4bf58dd8d48988d163941735,Park,40.77585368600669,-73.97525489330292,-240,Sat Apr 07 16:58:55 +0000 2012
3565,905,Impossible Project Space,4bf58dd8d48988d1e2931735,Art Gallery,40.719645344785256,-74.00166286032345,-240,Sat Apr 07 16:59:38 +0000 2012
3566,989,Mamajuana Cafe,4bf58dd8d48988d1c4941735,Restaurant,40.86631938476324,-73.92820065010599,-240,Sat Apr 07 17:00:40 +0000 2012
3567,110,Zeppelin Hall,4bf58dd8d48988d117941735,Beer Garden,40.71520900487956,-74.04685897537672,-240,Sat Apr 07 17:01:27 +0000 2012
3569,116,Beco,4bf58dd8d48988d16b941735,Brazilian Restaurant,40.718275,-73.9504,-240,Sat Apr 07 17:02:16 +0000 2012
3581,831,Buffalo's Chicken Shack,4bf58dd8d48988d14c941735,Wings Joint,40.84864418382523,-74.08097658460828,-240,Sat Apr 07 17:04:55 +0000 2012
3587,1009,Studios 353,4bf58dd8d48988d134941735,Performing Arts Venue,40.76185279856524,-73.98875060315132,-240,Sat Apr 07 17:06:46 +0000 2012
3590,86,John Jay College - Gerald W. Lynch Theater,4bf58dd8d48988d1ac941735,College Theater,40.77059959168162,-73.98893425023692,-240,Sat Apr 07 17:08:10 +0000 2012
3595,353,Caffe Pepe Rosso,4bf58dd8d48988d110941735,Italian Restaurant,40.75286546602863,-73.97733544430066,-240,Sat Apr 07 17:10:53 +0000 2012
3596,58,Tartinery - Nolita,4bf58dd8d48988d10c941735,French Restaurant,40.72176450259733,-73.9962685120018,-240,Sat Apr 07 17:11:06 +0000 2012
3602,3,Scandinavia House,4bf58dd8d48988d18f941735,Art Museum,40.74936104635891,-73.97999272885885,-240,Sat Apr 07 17:13:03 +0000 2012
3608,100,Sailors and Soldiers Monument,4bf58dd8d48988d165941735,Scenic Lookout,40.79173406918958,-73.978902270956,-240,Sat Apr 07 17:15:02 +0000 2012
3610,23,The Lodge Club,4bf58dd8d48988d155941735,Gastropub,40.733014961731286,-73.99821996688843,-240,Sat Apr 07 17:16:27 +0000 2012
3613,471,Dag Hammarskjold Plaza,4bf58dd8d48988d164941735,Plaza,40.75353970723301,-73.9715588092804,-240,Sat Apr 07 17:19:12 +0000 2012
3616,390,Home Run Apple,4bf58dd8d48988d166941735,Sculpture Garden,40.755254557622095,-73.84614944458008,-240,Sat Apr 07 17:21:02 +0000 2012
3620,905,Carriage Trade,4bf58dd8d48988d1e2931735,Art Gallery,40.71889696780601,-74.002994,-240,Sat Apr 07 17:21:51 +0000 2012
3630,214,Café D'Alsace,4bf58dd8d48988d10c941735,French Restaurant,40.77917988484352,-73.95085242398278,-240,Sat Apr 07 17:31:10 +0000 2012
3631,824,Denaro's Submarine Sandwiches,4bf58dd8d48988d1c5941735,Sandwich Place,40.940542,-73.99690621666667,-240,Sat Apr 07 17:31:16 +0000 2012
3632,630,The Cheesecake Factory,4bf58dd8d48988d14e941735,American Restaurant,40.90514482692817,-74.03167247772217,-240,Sat Apr 07 17:32:35 +0000 2012
3639,1005,Nicos Pizzeria,4bf58dd8d48988d1ca941735,Pizza Place,40.74634046719424,-74.23142800968738,-240,Sat Apr 07 17:33:46 +0000 2012
3640,945,Modern Market,4bf58dd8d48988d118951735,Food & Drink Shop,40.85528864329572,-73.88771823647461,-240,Sat Apr 07 17:33:58 +0000 2012
3647,337,McSorley's Old Ale House,4bf58dd8d48988d11b941735,Bar,40.728602348741525,-73.98996152288103,-240,Sat Apr 07 17:35:47 +0000 2012
3650,349,Patsy's Pizzeria,4bf58dd8d48988d1ca941735,Pizza Place,40.76195099046608,-73.96588325500488,-240,Sat Apr 07 17:37:04 +0000 2012
3651,349,Brasserie 360,4bf58dd8d48988d10c941735,French Restaurant,40.762197,-73.966069,-240,Sat Apr 07 17:37:16 +0000 2012
3655,842,Singas Famous Pizza,4bf58dd8d48988d1ca941735,Pizza Place,40.75254405452347,-73.92123122440601,-240,Sat Apr 07 17:40:13 +0000 2012
3660,1,Ditch Plains,4bf58dd8d48988d157941735,American Restaurant,40.78401843692215,-73.97452399134636,-240,Sat Apr 07 17:42:24 +0000 2012
3664,496,De Witt Clinton Park,4bf58dd8d48988d163941735,Park,40.76782506097938,-73.99368031863258,-240,Sat Apr 07 17:44:14 +0000 2012
3666,826,Joe's Shanghai,4bf58dd8d48988d145941735,Chinese Restaurant,40.7146424849308,-73.99764195084572,-240,Sat Apr 07 17:45:02 +0000 2012
3675,917,102 Noodles Town 永旺飯店,4bf58dd8d48988d145941735,Chinese Restaurant,40.71737382830898,-73.99742773583729,-240,Sat Apr 07 17:49:25 +0000 2012
3678,492,Brookdale Dog Park,4bf58dd8d48988d1e5941735,Other Great Outdoors,40.83250290752692,-74.19210532060801,-240,Sat Apr 07 17:50:00 +0000 2012
3684,682,Nice Matin,4bf58dd8d48988d10c941735,French Restaurant,40.783258791664096,-73.97812172886994,-240,Sat Apr 07 17:51:47 +0000 2012
3685,654,Sonic Drive-In,4bf58dd8d48988d16e941735,Fast Food Restaurant,40.774093,-74.03775911,-240,Sat Apr 07 17:51:52 +0000 2012
3686,100,Million Dollar Quartet,4bf58dd8d48988d137941735,Theater,40.76274736599172,-73.98761987686157,-240,Sat Apr 07 17:52:02 +0000 2012
3691,195,Eugene O'Neill Theatre,4bf58dd8d48988d137941735,Theater,40.761140384149925,-73.98567527532578,-240,Sat Apr 07 17:54:41 +0000 2012
3697,445,Flora Unisex Beauty Salon,4bf58dd8d48988d110951735,Salon / Barbershop,40.825409,-73.947929,-240,Sat Apr 07 18:00:09 +0000 2012
3699,529,Umi Sushi Zheng,4bf58dd8d48988d1d2941735,Sushi Restaurant,40.71138557757384,-73.85624972764876,-240,Sat Apr 07 18:01:23 +0000 2012
